[{"_id":"56951d2e170dd31100be553c","bId":"290","sId":"72","sName":"داروخانه دکتر بقائی","bName":"PAYOT","bCategory":"آرایش و زیبایی","bDistributor":"شرکت ماهتاب کیش","sCity":"تبریز","sAddress":"چهار راه آبرسان- جنب بانک ملت","sHours":"","sAreaCode":"041","sTel1":"33354403","sTel2":"","sLat":"38.065943","sLong":"46.323244","sVerified":"YES","bCategoryId":"2"},{"_id":"569114af18eda411006af896","bId":"287","sId":"74","sName":"داروخانه دکتر نائبی","bName":"Rene Furterer","bCategory":"آرایش و زیبایی","bDistributor":"شرکت ماهتاب کیش","sCity":"تبریز","sAddress":"خیابان 17 شهریور جدید- روبروی برج امپراطور","sHours":"","sAreaCode":"041","sTel1":"35541872","sTel2":"","sLat":"38.068081","sLong":"46.285675","sVerified":"YES","bCategoryId":"2"},{"_id":"567e73c4e810af1100ff1243","bId":"286","sId":"73","sName":"داروخانه دکتر جباری","bName":"GALENIC","bCategory":"آرایش و زیبایی","bDistributor":"شرکت ماهتاب کیش","sCity":"تبریز","sAddress":"خیابان 17 شهریور جدید- جنب خانه شیرینی","sHours":"","sAreaCode":"041","sTel1":"35571416","sTel2":"","sLat":"38.068313","sLong":"46.288902","sVerified":"YES","bCategoryId":"2"},{"_id":"56951d59170dd31100be553d","bId":"290","sId":"73","sName":"داروخانه دکتر جباری","bName":"PAYOT","bCategory":"آرایش و زیبایی","bDistributor":"شرکت ماهتاب کیش","sCity":"تبریز","sAddress":"خیابان 17 شهریور جدید- جنب خانه شیرینی","sHours":"","sAreaCode":"041","sTel1":"35571416","sTel2":"","sLat":"38.068313","sLong":"46.288902","sVerified":"YES","bCategoryId":"2"},{"_id":"5693638ad4d3571100d1199d","bId":"288","sId":"74","sName":"داروخانه دکتر نائبی","bName":"miss eden","bCategory":"آرایش و زیبایی","bDistributor":"شرکت ماهتاب کیش","sCity":"تبریز","sAddress":"خیابان 17 شهریور جدید- روبروی برج امپراطور","sHours":"","sAreaCode":"041","sTel1":"35541872","sTel2":"","sLat":"38.068081","sLong":"46.285675","sVerified":"YES","bCategoryId":"2"},{"_id":"567e721be810af1100ff1242","bId":"276","sId":"72","sName":"داروخانه دکتر بقائی","bName":"Avene","bCategory":"آرایش و زیبایی","bDistributor":"شرکت ماهتاب کیش","sCity":"تبریز","sAddress":"چهار راه آبرسان- جنب بانک ملت","sHours":"","sAreaCode":"041","sTel1":"33354403","sTel2":"","sLat":"38.065943","sLong":"46.323244","sVerified":"YES","bCategoryId":"2"},{"_id":"5693cac9d4d3571100d119ea","bId":"289","sId":"73","sName":"داروخانه دکتر جباری","bName":"comfort zone","bCategory":"آرایش و زیبایی","bDistributor":"شرکت ماهتاب کیش","sCity":"تبریز","sAddress":"خیابان 17 شهریور جدید- جنب خانه شیرینی","sHours":"","sAreaCode":"041","sTel1":"35571416","sTel2":"","sLat":"38.068313","sLong":"46.288902","sVerified":"YES","bCategoryId":"2"},{"_id":"56966812c063471100aaf9d9","bId":"291","sId":"73","sName":"داروخانه دکتر جباری","bName":"Marilou BIO","bCategory":"آرایش و زیبایی","bDistributor":"شرکت ماهتاب کیش","sCity":"تبریز","sAddress":"خیابان 17 شهریور جدید- جنب خانه شیرینی","sHours":"","sAreaCode":"041","sTel1":"35571416","sTel2":"","sLat":"38.068313","sLong":"46.288902","sVerified":"YES","bCategoryId":"2"},{"_id":"56682c1d8022ef11004375a8","bId":"276","sId":"72","sName":"داروخانه دکتر بقائی","bName":"Avene","bCategory":"آرایش و زیبایی","bDistributor":"شرکت ماهتاب کیش","sCity":"تبریز","sAddress":"چهار راه آبرسان- جنب بانک ملت","sHours":"","sAreaCode":"041","sTel1":"33354403","sTel2":"","sLat":"38.065943","sLong":"46.323244","sVerified":"YES","bCategoryId":"2"},{"_id":"56a8d70b529bf911009a7fb5","bId":"382","sId":"2","sName":"kinetix","bName":"kinetix","bCategory":"کفش","bDistributor":"kinetix","sCity":"تبریز","sAddress":"لاله پارک، طبقه اول","sHours":"10~22","sAreaCode":"041","sTel1":"36600325","sTel2":"","sLat":"38.0723884","sLong":"46.3693777","sVerified":"YES","bCategoryId":"4"},{"_id":"569d0012dcb95d1100007f54","bId":"303","sId":"1","sName":"COLINS","bName":"COLINS","bCategory":"پوشاک","bDistributor":"","sCity":"تبریز","sAddress":"باغمیشه ،اتوبان کنار گذر شمال ","sHours":"","sAreaCode":"041","sTel1":"36600345","sTel2":"","sLat":"38.072439","sLong":"46.368694","sVerified":"NO","bCategoryId":"3"},{"_id":"55fe5bbe333e921100bf392d","bId":"84","sId":"31","sName":"Apple Market","bName":"Apple","bCategory":"موبایل","bDistributor":"","sCity":"تبریز","sAddress":"خیابان امام , نرسیده به سه راه طالقانی مجتمع تجاری استاد شهریار , زیر همکف پلاک ۴۳","sHours":"","sAreaCode":"041","sTel1":"35544122","sTel2":"","sLat":"38.0740639","sLong":"46.2923008","sVerified":"NO","bCategoryId":"10"},{"_id":"569669f4c063471100aaf9dc","bId":"291","sId":"76","sName":"داروخانه دکتر اسکندری نژاد","bName":"Marilou BIO","bCategory":"آرایش و زیبایی","bDistributor":"شرکت ماهتاب کیش","sCity":"تبریز","sAddress":"خیابان 17 شهریور جدید- چهار راه باغشمال","sHours":"","sAreaCode":"041","sTel1":"35530403","sTel2":"","sLat":"38.068216","sLong":"46.296906","sVerified":"YES","bCategoryId":"2"},{"_id":"56682e0c8022ef11004375ac","bId":"276","sId":"76","sName":"داروخانه دکتر اسکندری نژاد","bName":"Avene","bCategory":"آرایش و زیبایی","bDistributor":"شرکت ماهتاب کیش","sCity":"تبریز","sAddress":"خیابان 17 شهریور جدید- چهار راه باغشمال","sHours":"","sAreaCode":"041","sTel1":"35530403","sTel2":"","sLat":"38.068216","sLong":"46.296906","sVerified":"YES","bCategoryId":"2"},{"_id":"56682bed8022ef11004375a7","bId":"276","sId":"71","sName":"داروخانه دکتر باختر","bName":"Avene","bCategory":"آرایش و زیبایی","bDistributor":"شرکت ماهتاب کیش","sCity":"تبریز","sAddress":"چهارراه آبرسان روبروی خانه فرهنگ","sHours":"","sAreaCode":"041","sTel1":"33346986","sTel2":"","sLat":"38.0659118","sLong":"46.3236514","sVerified":"YES","bCategoryId":"2"},{"_id":"5693ca92d4d3571100d119e9","bId":"289","sId":"72","sName":"داروخانه دکتر بقائی","bName":"comfort zone","bCategory":"آرایش و زیبایی","bDistributor":"شرکت ماهتاب کیش","sCity":"تبریز","sAddress":"چهار راه آبرسان- جنب بانک ملت","sHours":"","sAreaCode":"041","sTel1":"33354403","sTel2":"","sLat":"38.065943","sLong":"46.323244","sVerified":"YES","bCategoryId":"2"},{"_id":"56951df1170dd31100be5540","bId":"290","sId":"76","sName":"داروخانه دکتر اسکندری نژاد","bName":"PAYOT","bCategory":"آرایش و زیبایی","bDistributor":"شرکت ماهتاب کیش","sCity":"تبریز","sAddress":"خیابان 17 شهریور جدید- چهار راه باغشمال","sHours":"","sAreaCode":"041","sTel1":"35530403","sTel2":"","sLat":"38.068216","sLong":"46.296906","sVerified":"YES","bCategoryId":"2"},{"_id":"55fe97c9333e921100bf3971","bId":"89","sId":"14","sName":"فروشگاه نمونه","bName":"ZTE","bCategory":"موبایل","bDistributor":"پارس سامتل","sCity":"تبریز","sAddress":"چهار راه شریعتی، بازار بزرگ شریعتی، پلاک 1","sHours":"","sAreaCode":"041","sTel1":"35546646","sTel2":"","sLat":"38.07442","sLong":"46.287266","sVerified":"YES","bCategoryId":"10"},{"_id":"5691148018eda411006af895","bId":"287","sId":"73","sName":"داروخانه دکتر جباری","bName":"Rene Furterer","bCategory":"آرایش و زیبایی","bDistributor":"شرکت ماهتاب کیش","sCity":"تبریز","sAddress":"خیابان 17 شهریور جدید- جنب خانه شیرینی","sHours":"","sAreaCode":"041","sTel1":"35571416","sTel2":"","sLat":"38.068313","sLong":"46.288902","sVerified":"YES","bCategoryId":"2"},{"_id":"55fe97a1333e921100bf3970","bId":"89","sId":"13","sName":"موبایل علیزاده","bName":"ZTE","bCategory":"موبایل","bDistributor":"پارس سامتل","sCity":"تبریز","sAddress":"خیابان امام، چهار راه شریعتی، بازار کویتی ها، طبقه همکف، پلاک 112","sHours":"","sAreaCode":"041","sTel1":"35541594","sTel2":"","sLat":"38.07442","sLong":"46.287266","sVerified":"YES","bCategoryId":"10"},{"_id":"567696f41082b811002ad515","bId":"285","sId":"74","sName":"داروخانه دکتر اسکندری نژاد","bName":"DUCRAY","bCategory":"آرایش و زیبایی","bDistributor":"شرکت ماهتاب کیش","sCity":"تبریز","sAddress":"خیابان 17 شهریور جدید- چهار راه باغشمال","sHours":"","sAreaCode":"041","sTel1":"35530403","sTel2":"","sLat":"38.068216","sLong":"46.296906","sVerified":"YES","bCategoryId":"2"},{"_id":"567e7456e810af1100ff1245","bId":"286","sId":"75","sName":"داروخانه دکتر سلطانپور","bName":"GALENIC","bCategory":"آرایش و زیبایی","bDistributor":"شرکت ماهتاب کیش","sCity":"تبریز","sAddress":"خیابان 17 شهریور جدید- روبروی کلینیک فرهنگیان","sHours":"","sAreaCode":"041","sTel1":"35560510","sTel2":"","sLat":"38.0685221","sLong":"46.2916583","sVerified":"YES","bCategoryId":"2"},{"_id":"5623abecebc975110095c6ce","bId":"186","sId":"27","sName":" نى نى صدرا","bName":"green apple","bCategory":"لوازم و پوشاک کودک","bDistributor":"green apple","sCity":"تبریز","sAddress":"خيابان وليعصر خيابان شهريار نرسيده به فلكه بزرگ","sHours":"","sAreaCode":"041","sTel1":"33308042","sTel2":"","sLat":"38.0674802","sLong":"46.3885729","sVerified":"YES","bCategoryId":"12"},{"_id":"5623ac1eebc975110095c6cf","bId":"186","sId":"28","sName":"پرنس","bName":"green apple","bCategory":"لوازم و پوشاک کودک","bDistributor":"green apple","sCity":"تبریز","sAddress":"خ امام - بالاتر از ٤ راه منصور - روبروى چرخ خياطى كاچيران","sHours":"","sAreaCode":"041","sTel1":"33355231","sTel2":"","sLat":"38.070807","sLong":"46.307934","sVerified":"YES","bCategoryId":"12"},{"_id":"56682c478022ef11004375a9","bId":"276","sId":"73","sName":"داروخانه دکتر جباری","bName":"Avene","bCategory":"آرایش و زیبایی","bDistributor":"شرکت ماهتاب کیش","sCity":"تبریز","sAddress":"خیابان 17 شهریور جدید- جنب خانه شیرینی","sHours":"","sAreaCode":"041","sTel1":"35571416","sTel2":"","sLat":"38.068313","sLong":"46.288902","sVerified":"YES","bCategoryId":"2"},{"_id":"5668614c8022ef11004375f6","bId":"277","sId":"71","sName":"داروخانه دکتر باختر","bName":"KLORANE","bCategory":"آرایش و زیبایی","bDistributor":"شرکت ماهتاب کیش","sCity":"تبریز","sAddress":"چهارراه آبرسان روبروی خانه فرهنگ","sHours":"","sAreaCode":"041","sTel1":"33346986","sTel2":"","sLat":"38.0659118","sLong":"46.3236514","sVerified":"YES","bCategoryId":"2"},{"_id":"56951dbd170dd31100be553f","bId":"290","sId":"75","sName":"داروخانه دکتر سلطانپور","bName":"PAYOT","bCategory":"آرایش و زیبایی","bDistributor":"شرکت ماهتاب کیش","sCity":"تبریز","sAddress":"خیابان 17 شهریور جدید- روبروی کلینیک فرهنگیان","sHours":"","sAreaCode":"041","sTel1":"35560510","sTel2":"","sLat":"38.0685221","sLong":"46.2916583","sVerified":"YES","bCategoryId":"2"},{"_id":"567692371082b811002ad510","bId":"285","sId":"69","sName":"داروخانه دکتر باختر","bName":"DUCRAY","bCategory":"آرایش و زیبایی","bDistributor":"شرکت ماهتاب کیش","sCity":"تبریز","sAddress":"چهارراه آبرسان روبروی خانه فرهنگ","sHours":"","sAreaCode":"041","sTel1":"33346986","sTel2":"","sLat":"38.0659118","sLong":"46.3236514","sVerified":"YES","bCategoryId":"2"},{"_id":"5668617a8022ef11004375f7","bId":"277","sId":"72","sName":"داروخانه دکتر بقائی","bName":"KLORANE","bCategory":"آرایش و زیبایی","bDistributor":"شرکت ماهتاب کیش","sCity":"تبریز","sAddress":"چهار راه آبرسان- جنب بانک ملت","sHours":"","sAreaCode":"041","sTel1":"33354403","sTel2":"","sLat":"38.065943","sLong":"46.323244","sVerified":"YES","bCategoryId":"2"},{"_id":"5693cb6cd4d3571100d119ed","bId":"289","sId":"76","sName":"داروخانه دکتر اسکندری نژاد","bName":"comfort zone","bCategory":"آرایش و زیبایی","bDistributor":"شرکت ماهتاب کیش","sCity":"تبریز","sAddress":"خیابان 17 شهریور جدید- چهار راه باغشمال","sHours":"","sAreaCode":"041","sTel1":"35530403","sTel2":"","sLat":"38.068216","sLong":"46.296906","sVerified":"YES","bCategoryId":"2"},{"_id":"56a1ec417796f6110049fdda","bId":"302","sId":"6","sName":"Giovane Gentile ","bName":"Giovane Gentile ","bCategory":"پوشاک آقایان","bDistributor":"","sCity":"تبریز","sAddress":"باغمیشه ،اتوبان کنار گذر شمال ","sHours":"","sAreaCode":"041","sTel1":"36600341","sTel2":"","sLat":"38.072267","sLong":"46.368867","sVerified":"NO","bCategoryId":"7"},{"_id":"5693ca18d4d3571100d119e8","bId":"289","sId":"71","sName":"داروخانه دکتر باختر","bName":"comfort zone","bCategory":"آرایش و زیبایی","bDistributor":"شرکت ماهتاب کیش","sCity":"تبریز","sAddress":"چهارراه آبرسان روبروی خانه فرهنگ","sHours":"","sAreaCode":"041","sTel1":"33346986","sTel2":"","sLat":"38.0659118","sLong":"46.3236514","sVerified":"YES","bCategoryId":"2"},{"_id":"569363e0d4d3571100d1199f","bId":"288","sId":"76","sName":"داروخانه دکتر اسکندری نژاد","bName":"miss eden","bCategory":"آرایش و زیبایی","bDistributor":"شرکت ماهتاب کیش","sCity":"تبریز","sAddress":"خیابان 17 شهریور جدید- چهار راه باغشمال","sHours":"","sAreaCode":"041","sTel1":"35530403","sTel2":"","sLat":"38.068216","sLong":"46.296906","sVerified":"YES","bCategoryId":"2"},{"_id":"566862288022ef11004375f8","bId":"277","sId":"73","sName":"داروخانه دکتر جباری","bName":"KLORANE","bCategory":"آرایش و زیبایی","bDistributor":"شرکت ماهتاب کیش","sCity":"تبریز","sAddress":"خیابان 17 شهریور جدید- جنب خانه شیرینی","sHours":"","sAreaCode":"041","sTel1":"35571416","sTel2":"","sLat":"38.068313","sLong":"46.288902","sVerified":"YES","bCategoryId":"2"},{"_id":"567695731082b811002ad512","bId":"285","sId":"71","sName":"داروخانه دکتر جباری","bName":"DUCRAY","bCategory":"آرایش و زیبایی","bDistributor":"شرکت ماهتاب کیش","sCity":"تبریز","sAddress":"خیابان 17 شهریور جدید- جنب خانه شیرینی","sHours":"","sAreaCode":"041","sTel1":"35571416","sTel2":"","sLat":"38.068313","sLong":"46.288902","sVerified":"YES","bCategoryId":"2"},{"_id":"5691141818eda411006af894","bId":"287","sId":"72","sName":"داروخانه دکتر بقائی","bName":"Rene Furterer","bCategory":"آرایش و زیبایی","bDistributor":"شرکت ماهتاب کیش","sCity":"تبریز","sAddress":"چهار راه آبرسان- جنب بانک ملت","sHours":"","sAreaCode":"041","sTel1":"33354403","sTel2":"","sLat":"38.065943","sLong":"46.323244","sVerified":"YES","bCategoryId":"2"},{"_id":"55fe9e9c333e921100bf3982","bId":"90","sId":"13","sName":"موبایل علیزاده","bName":"acer","bCategory":"موبایل","bDistributor":"پارس سامتل","sCity":"تبریز","sAddress":"خیابان امام، چهار راه شریعتی، بازار کویتی ها، طبقه همکف، پلاک 112","sHours":"","sAreaCode":"041","sTel1":"35541594","sTel2":"","sLat":"38.07442","sLong":"46.287266","sVerified":"YES","bCategoryId":"10"},{"_id":"567e748ae810af1100ff1246","bId":"286","sId":"76","sName":"داروخانه دکتر اسکندری نژاد","bName":"GALENIC","bCategory":"آرایش و زیبایی","bDistributor":"شرکت ماهتاب کیش","sCity":"تبریز","sAddress":"خیابان 17 شهریور جدید- چهار راه باغشمال","sHours":"","sAreaCode":"041","sTel1":"35530403","sTel2":"","sLat":"38.068216","sLong":"46.296906","sVerified":"YES","bCategoryId":"2"},{"_id":"56936300d4d3571100d1199a","bId":"288","sId":"71","sName":"داروخانه دکتر باختر","bName":"miss eden","bCategory":"آرایش و زیبایی","bDistributor":"شرکت ماهتاب کیش","sCity":"تبریز","sAddress":"چهارراه آبرسان روبروی خانه فرهنگ","sHours":"","sAreaCode":"041","sTel1":"33346986","sTel2":"","sLat":"38.0659118","sLong":"46.3236514","sVerified":"YES","bCategoryId":"2"},{"_id":"5691150a18eda411006af898","bId":"287","sId":"76","sName":"داروخانه دکتر اسکندری نژاد","bName":"Rene Furterer","bCategory":"آرایش و زیبایی","bDistributor":"شرکت ماهتاب کیش","sCity":"تبریز","sAddress":"خیابان 17 شهریور جدید- چهار راه باغشمال","sHours":"","sAreaCode":"041","sTel1":"35530403","sTel2":"","sLat":"38.068216","sLong":"46.296906","sVerified":"YES","bCategoryId":"2"},{"_id":"56951d92170dd31100be553e","bId":"290","sId":"74","sName":"داروخانه دکتر نائبی","bName":"PAYOT","bCategory":"آرایش و زیبایی","bDistributor":"شرکت ماهتاب کیش","sCity":"تبریز","sAddress":"خیابان 17 شهریور جدید- روبروی برج امپراطور","sHours":"","sAreaCode":"041","sTel1":"35541872","sTel2":"","sLat":"38.068081","sLong":"46.285675","sVerified":"YES","bCategoryId":"2"},{"_id":"569363b5d4d3571100d1199e","bId":"288","sId":"75","sName":"داروخانه دکتر سلطانپور","bName":"miss eden","bCategory":"آرایش و زیبایی","bDistributor":"شرکت ماهتاب کیش","sCity":"تبریز","sAddress":"خیابان 17 شهریور جدید- روبروی کلینیک فرهنگیان","sHours":"","sAreaCode":"041","sTel1":"35560510","sTel2":"","sLat":"38.0685221","sLong":"46.2916583","sVerified":"YES","bCategoryId":"2"},{"_id":"567696ab1082b811002ad514","bId":"285","sId":"73","sName":"داروخانه دکتر سلطانپور","bName":"DUCRAY","bCategory":"آرایش و زیبایی","bDistributor":"شرکت ماهتاب کیش","sCity":"تبریز","sAddress":"خیابان 17 شهریور جدید- روبروی کلینیک فرهنگیان","sHours":"","sAreaCode":"041","sTel1":"35560510","sTel2":"","sLat":"38.0685221","sLong":"46.2916583","sVerified":"YES","bCategoryId":"2"},{"_id":"569114da18eda411006af897","bId":"287","sId":"75","sName":"داروخانه دکتر سلطانپور","bName":"Rene Furterer","bCategory":"آرایش و زیبایی","bDistributor":"شرکت ماهتاب کیش","sCity":"تبریز","sAddress":"خیابان 17 شهریور جدید- روبروی کلینیک فرهنگیان","sHours":"","sAreaCode":"041","sTel1":"35560510","sTel2":"","sLat":"38.0685221","sLong":"46.2916583","sVerified":"YES","bCategoryId":"2"},{"_id":"55f40786032ead1100a3cbb2","bId":"21","sId":"7","sName":"PUMA","bName":"PUMA","bCategory":"پوشاک ورزشی","bDistributor":"","sCity":"مراغه","sAddress":"خیابان قدس ،روبروی بانک ملت پلاک41","sHours":"90:30~13:30,17~21:31","sAreaCode":"041","sTel1":"37221211","sTel2":"","sLat":"37.3894828","sLong":"46.236452","sVerified":"NO","bCategoryId":"1"},{"_id":"56910f5318eda411006af891","bId":"287","sId":"71","sName":"داروخانه دکتر باختر","bName":"Rene Furterer","bCategory":"آرایش و زیبایی","bDistributor":"شرکت ماهتاب کیش","sCity":"تبریز","sAddress":"چهارراه آبرسان روبروی خانه فرهنگ","sHours":"","sAreaCode":"041","sTel1":"33346986","sTel2":"","sLat":"38.0659118","sLong":"46.3236514","sVerified":"YES","bCategoryId":"2"},{"_id":"567e71b6e810af1100ff1241","bId":"286","sId":"71","sName":"داروخانه دکتر باختر","bName":"GALENIC","bCategory":"آرایش و زیبایی","bDistributor":"شرکت ماهتاب کیش","sCity":"تبریز","sAddress":"چهارراه آبرسان روبروی خانه فرهنگ","sHours":"","sAreaCode":"041","sTel1":"33346986","sTel2":"","sLat":"38.0659118","sLong":"46.3236514","sVerified":"YES","bCategoryId":"2"},{"_id":"5693635dd4d3571100d1199c","bId":"288","sId":"73","sName":"داروخانه دکتر جباری","bName":"miss eden","bCategory":"آرایش و زیبایی","bDistributor":"شرکت ماهتاب کیش","sCity":"تبریز","sAddress":"خیابان 17 شهریور جدید- جنب خانه شیرینی","sHours":"","sAreaCode":"041","sTel1":"35571416","sTel2":"","sLat":"38.068313","sLong":"46.288902","sVerified":"YES","bCategoryId":"2"},{"_id":"55fe64ef333e921100bf3943","bId":"85","sId":"21","sName":"موبایل علیزاده","bName":"SAMSUNG","bCategory":"موبایل","bDistributor":"پارس سامتل","sCity":"تبریز","sAddress":"خیابان امام، چهار راه شریعتی، بازار کویتی ها، طبقه همکف، پلاک 112","sHours":"","sAreaCode":"041","sTel1":"35541594","sTel2":"","sLat":"38.07442","sLong":"46.287266","sVerified":"YES","bCategoryId":"10"},{"_id":"5693cb15d4d3571100d119eb","bId":"289","sId":"74","sName":"داروخانه دکتر نائبی","bName":"comfort zone","bCategory":"آرایش و زیبایی","bDistributor":"شرکت ماهتاب کیش","sCity":"تبریز","sAddress":"خیابان 17 شهریور جدید- روبروی برج امپراطور","sHours":"","sAreaCode":"041","sTel1":"35541872","sTel2":"","sLat":"38.068081","sLong":"46.285675","sVerified":"YES","bCategoryId":"2"},{"_id":"5693cb41d4d3571100d119ec","bId":"289","sId":"75","sName":"داروخانه دکتر سلطانپور","bName":"comfort zone","bCategory":"آرایش و زیبایی","bDistributor":"شرکت ماهتاب کیش","sCity":"تبریز","sAddress":"خیابان 17 شهریور جدید- روبروی کلینیک فرهنگیان","sHours":"","sAreaCode":"041","sTel1":"35560510","sTel2":"","sLat":"38.0685221","sLong":"46.2916583","sVerified":"YES","bCategoryId":"2"},{"_id":"56b314f85de5ac1100324771","bId":"3","sId":"11","sName":"benetton","bName":"Benetton","bCategory":"پوشاک","bDistributor":"کاسپین مد","sCity":"تبریز","sAddress":"خیابان ولیعصر، خیابان آذربایجان، روبروی بانك سامان، پلاك 16","sHours":"10~22","sAreaCode":"041","sTel1":"33292820","sTel2":"","sLat":"38.070477","sLong":"46.309321","sDiscount":0,"sVerified":"YES","bCategoryId":"3"},{"_id":"571db4021fac931100bfeac3","bId":"7","sId":"9","sName":"MANGO","bName":"MANGO","bCategory":"پوشاک بانوان","bDistributor":"","sCity":"تبریز","sAddress":"باغمیشه ،اتوبان کنار گذر شمال ","sHours":"","sAreaCode":"041","sTel1":"36600266","sTel2":"","sLat":"38.072462","sLong":"46.368823","sDiscount":0,"sVerified":"NO","bCategoryId":"6"},{"_id":"571db3e51fac931100bfeab9","bId":"84","sId":"304","sName":"دائی","bName":"Apple","bCategory":"موبایل","bDistributor":"","sCity":"تبریز","sAddress":"شریعتی- کوچه ارک-بازار موبایل تبریز","sHours":"۱۰-۲۲","sAreaCode":"041","sTel1":"35577580","sTel2":"","sLat":"38.072743","sLong":"46.287557","sDiscount":0,"sVerified":"No","bCategoryId":"10"},{"_id":"571db3ff1fac931100bfeac2","bId":"7","sId":"8","sName":"MANGO","bName":"MANGO","bCategory":"پوشاک بانوان","bDistributor":"Fashion Aria mode","sCity":"تبریز","sAddress":"خیابان ولیعصر خیابان کریمخان نبش مانتو پرویز","sHours":"","sAreaCode":"041","sTel1":"33328603","sTel2":"","sLat":"38.0547153","sLong":"46.3610364","sDiscount":0,"sVerified":"YES","bCategoryId":"6"},{"_id":"56ced57fc6fd6111004c19fd","bId":"59","sId":"13","sName":"درسا","bName":"DORSA","bCategory":"چرم","bDistributor":"درسا","sCity":"تبریز","sAddress":"خیابان ولیعصر-فلکه مخابرات-نبش کوچه امیرکبیر","sHours":"9:30~13:30,17~22","sAreaCode":"041","sTel1":"33296215","sTel2":"","sLat":"38.0559861","sLong":"46.3585281","sDiscount":0,"sVerified":"YES","bCategoryId":"9"},{"_id":"56cecbc5c6fd6111004c1980","bId":"61","sId":"20","sName":"نوین چرم","bName":"novin leather","bCategory":"چرم","bDistributor":"نوین چرم","sCity":"تبریز","sAddress":"میدان فهمیده، مجتمع تجاری لاله پارک، واحد 22","sHours":"","sAreaCode":"041","sTel1":"36600308","sTel2":"","sLat":"38.0723885","sLong":"46.3693777","sDiscount":0,"sVerified":"YES","bCategoryId":"9"},{"_id":"56cecc7bc6fd6111004c1996","bId":"69","sId":"3","sName":"سالیان","bName":"Salian","bCategory":"پوشاک","bDistributor":"سالیان","sCity":"تبریز","sAddress":"اتوبان کنار گذر شمال تبریز، باغمیشه ","sHours":"","sAreaCode":"041","sTel1":"36600248","sTel2":"","sLat":"38.072513","sLong":"46.368912","sDiscount":0,"sVerified":"YES","bCategoryId":"3"},{"_id":"569667e9c063471100aaf9d8","bId":"291","sId":"72","sName":"داروخانه دکتر بقائی","bName":"Marilou BIO","bCategory":"آرایش و زیبایی","bDistributor":"شرکت ماهتاب کیش","sCity":"تبریز","sAddress":"چهار راه آبرسان- جنب بانک ملت","sHours":"","sAreaCode":"041","sTel1":"33354403","sTel2":"","sLat":"38.065943","sLong":"46.323244","sVerified":"YES","bCategoryId":"2"},{"_id":"56a351f6dcf69611008cdd8c","bId":"46","sId":"11","sName":"Daniellee","bName":"Daniellee","bCategory":"کفش","bDistributor":"دنیلی","sCity":"تبریز","sAddress":"باغمیشه ،اتوبان کنار گذر شمال ","sHours":"","sAreaCode":"041","sTel1":"36600233","sTel2":"","sLat":"38.072462","sLong":"46.368823","sVerified":"YES","bCategoryId":"4"},{"_id":"569e4bcc64f9a81100285d75","bId":"367","sId":"2","sName":"BALIZZA","bName":"BALIZZA","bCategory":"پوشاک","bDistributor":"","sCity":"تبریز","sAddress":"باغمیشه ،اتوبان کنار گذر شمال ","sHours":"","sAreaCode":"041","sTel1":"36600707","sTel2":"","sLat":"38.072462","sLong":"46.368823","sVerified":"NO","bCategoryId":"3"},{"_id":"569ce374dcb95d1100007f3b","bId":"116","sId":"5","sName":"LC WAIkIkI","bName":"LC WAIkIkI","bCategory":"پوشاک","bDistributor":"LC WAIkIkI","sCity":"تبریز","sAddress":"باغمیشه ،اتوبان کنار گذر شمال ","sHours":"","sAreaCode":"041","sTel1":"36600273","sTel2":"","sLat":"38.072462","sLong":"46.368823","sVerified":"YES","bCategoryId":"3"},{"_id":"5696683ac063471100aaf9da","bId":"291","sId":"74","sName":"داروخانه دکتر نائبی","bName":"Marilou BIO","bCategory":"آرایش و زیبایی","bDistributor":"شرکت ماهتاب کیش","sCity":"تبریز","sAddress":"خیابان 17 شهریور جدید- روبروی برج امپراطور","sHours":"","sAreaCode":"041","sTel1":"35541872","sTel2":"","sLat":"38.068081","sLong":"46.285675","sVerified":"YES","bCategoryId":"2"},{"_id":"571db3a81fac931100bfeaa8","bId":"22","sId":"4","sName":"KOTON","bName":"KOTON","bCategory":"پوشاک","bDistributor":"","sCity":"تبریز","sAddress":"مجتمع تجاری لاله پارک ","sHours":"10~22","sAreaCode":"041","sTel1":"36600171","sTel2":"","sLat":"38.0723884","sLong":"46.3693777","sDiscount":0,"sVerified":"NO","bCategoryId":"3"},{"_id":"566862878022ef11004375fa","bId":"277","sId":"75","sName":"داروخانه دکتر سلطانپور","bName":"KLORANE","bCategory":"آرایش و زیبایی","bDistributor":"شرکت ماهتاب کیش","sCity":"تبریز","sAddress":"خیابان 17 شهریور جدید- روبروی کلینیک فرهنگیان","sHours":"","sAreaCode":"041","sTel1":"35560510","sTel2":"","sLat":"38.0685221","sLong":"46.2916583","sVerified":"YES","bCategoryId":"2"},{"_id":"569cf984dcb95d1100007f4c","bId":"298","sId":"3","sName":"Bershka","bName":"Bershka","bCategory":"پوشاک","bDistributor":"","sCity":"تبریز","sAddress":"باغمیشه ،اتوبان کنار گذر شمال ","sHours":"","sAreaCode":"041","sTel1":"36600114","sTel2":"","sLat":"38.072439","sLong":"46.368694","sVerified":"NO","bCategoryId":"3"},{"_id":"569df2ae64f9a81100285d21","bId":"336","sId":"3","sName":"Penti","bName":"Penti","bCategory":"پوشاک بانوان","bDistributor":"","sCity":"تبریز","sAddress":"مجتمع تجاری لاله پارک ","sHours":"10~22","sAreaCode":"041","sTel1":"36600182","sTel2":"","sLat":"38.0723884","sLong":"46.3693777","sVerified":"NO","bCategoryId":"6"},{"_id":"5696685fc063471100aaf9db","bId":"291","sId":"75","sName":"داروخانه دکتر سلطانپور","bName":"Marilou BIO","bCategory":"آرایش و زیبایی","bDistributor":"شرکت ماهتاب کیش","sCity":"تبریز","sAddress":"خیابان 17 شهریور جدید- روبروی کلینیک فرهنگیان","sHours":"","sAreaCode":"041","sTel1":"35560510","sTel2":"","sLat":"38.0685221","sLong":"46.2916583","sVerified":"YES","bCategoryId":"2"},{"_id":"569cf256dcb95d1100007f44","bId":"297","sId":"2","sName":"adL","bName":"adL","bCategory":"پوشاک بانوان","bDistributor":"","sCity":"تبریز","sAddress":"مجتمع تجاری لاله پارک ","sHours":"10~22","sAreaCode":"041","sTel1":"36600311","sTel2":"","sLat":"38.0723884","sLong":"46.3693777","sVerified":"NO","bCategoryId":"6"},{"_id":"5623abbfebc975110095c6cd","bId":"186","sId":"26","sName":"نى نى سالن","bName":"green apple","bCategory":"لوازم و پوشاک کودک","bDistributor":"green apple","sCity":"تبریز","sAddress":"خیابان امان خمینی- پاساژ نگين- پاساژ نگين","sHours":"","sAreaCode":"041","sTel1":"33346657","sTel2":"","sLat":"38.075481","sLong":"46.285296","sVerified":"YES","bCategoryId":"12"},{"_id":"567695fa1082b811002ad513","bId":"285","sId":"72","sName":"داروخانه دکتر نائبی","bName":"DUCRAY","bCategory":"آرایش و زیبایی","bDistributor":"شرکت ماهتاب کیش","sCity":"تبریز","sAddress":"خیابان 17 شهریور جدید- روبروی برج امپراطور","sHours":"","sAreaCode":"041","sTel1":"35541872","sTel2":"","sLat":"38.068081","sLong":"46.285675","sVerified":"YES","bCategoryId":"2"},{"_id":"569667bec063471100aaf9d7","bId":"291","sId":"71","sName":"داروخانه دکتر باختر","bName":"Marilou BIO","bCategory":"آرایش و زیبایی","bDistributor":"شرکت ماهتاب کیش","sCity":"تبریز","sAddress":"چهارراه آبرسان روبروی خانه فرهنگ","sHours":"","sAreaCode":"041","sTel1":"33346986","sTel2":"","sLat":"38.0659118","sLong":"46.3236514","sVerified":"YES","bCategoryId":"2"},{"_id":"5668625a8022ef11004375f9","bId":"277","sId":"74","sName":"داروخانه دکتر نائبی","bName":"KLORANE","bCategory":"آرایش و زیبایی","bDistributor":"شرکت ماهتاب کیش","sCity":"تبریز","sAddress":"خیابان 17 شهریور جدید- روبروی برج امپراطور","sHours":"","sAreaCode":"041","sTel1":"35541872","sTel2":"","sLat":"38.068081","sLong":"46.285675","sVerified":"YES","bCategoryId":"2"},{"_id":"569ce417dcb95d1100007f3c","bId":"115","sId":"3","sName":"mavi","bName":"mavi","bCategory":"پوشاک","bDistributor":"","sCity":"تبریز","sAddress":"باغمیشه ،اتوبان کنار گذر شمال ","sHours":"","sAreaCode":"041","sTel1":"36600262","sTel2":"","sLat":"38.072462","sLong":"46.368823","sVerified":"NO","bCategoryId":"3"},{"_id":"56682c898022ef11004375aa","bId":"276","sId":"74","sName":"داروخانه دکتر نائبی","bName":"Avene","bCategory":"آرایش و زیبایی","bDistributor":"شرکت ماهتاب کیش","sCity":"تبریز","sAddress":"خیابان 17 شهریور جدید- روبروی برج امپراطور","sHours":"","sAreaCode":"041","sTel1":"35541872","sTel2":"","sLat":"38.068081","sLong":"46.285675","sVerified":"YES","bCategoryId":"2"},{"_id":"567695341082b811002ad511","bId":"285","sId":"70","sName":"داروخانه دکتر بقائی","bName":"DUCRAY","bCategory":"آرایش و زیبایی","bDistributor":"شرکت ماهتاب کیش","sCity":"تبریز","sAddress":"چهار راه آبرسان- جنب بانک ملت","sHours":"","sAreaCode":"041","sTel1":"33354403","sTel2":"","sLat":"38.065943","sLong":"46.323244","sVerified":"YES","bCategoryId":"2"},{"_id":"56a0c6116fa2e911008b6d4e","bId":"47","sId":"18","sName":"SKECHERS","bName":"SKECHERS","bCategory":"کفش","bDistributor":"iranskechers","sCity":"تبریز","sAddress":"خیابان ولیعصر، ضلع جنوبی فلکه شریعتی","sHours":"","sAreaCode":"041","sTel1":"33306523","sTel2":"","sLat":"38.058797","sLong":"46.358817","sVerified":"YES","bCategoryId":"4"},{"_id":"566d3a2b5ed44f11002a5be8","bId":"282","sId":"1","sName":"جهان","bName":"Jahan","bCategory":"طلا و جواهر","bDistributor":"طلای جهان","sCity":"تبریز","sAddress":"خیابان جمهوری اسلامی، بازار قطران، طبقه همکف، پلاک 22","sHours":"","sAreaCode":"041","sTel1":"35540218","sTel2":"","sLat":"38.078287","sLong":"46.293583","sVerified":"YES","bCategoryId":"13"},{"_id":"56951cf2170dd31100be553b","bId":"290","sId":"71","sName":"داروخانه دکتر باختر","bName":"PAYOT","bCategory":"آرایش و زیبایی","bDistributor":"شرکت ماهتاب کیش","sCity":"تبریز","sAddress":"چهارراه آبرسان روبروی خانه فرهنگ","sHours":"","sAreaCode":"041","sTel1":"33346986","sTel2":"","sLat":"38.0659118","sLong":"46.3236514","sVerified":"YES","bCategoryId":"2"},{"_id":"569cef46dcb95d1100007f42","bId":"296","sId":"2","sName":"defacto","bName":"defacto","bCategory":"پوشاک بانوان","bDistributor":"","sCity":"تبریز","sAddress":"باغمیشه ،اتوبان کنار گذر شمال ","sHours":"10~22","sAreaCode":"041","sTel1":"36600267","sTel2":"","sLat":"38.072439","sLong":"46.368694","sVerified":"NO","bCategoryId":"6"},{"_id":"55fe9ed3333e921100bf3983","bId":"90","sId":"14","sName":"فروشگاه نمونه","bName":"acer","bCategory":"موبایل","bDistributor":"پارس سامتل","sCity":"تبریز","sAddress":"چهار راه شریعتی، بازار بزرگ شریعتی، پلاک 1","sHours":"","sAreaCode":"041","sTel1":"35546646","sTel2":"","sLat":"38.07442","sLong":"46.287266","sVerified":"YES","bCategoryId":"10"},{"_id":"56936331d4d3571100d1199b","bId":"288","sId":"72","sName":"داروخانه دکتر بقائی","bName":"miss eden","bCategory":"آرایش و زیبایی","bDistributor":"شرکت ماهتاب کیش","sCity":"تبریز","sAddress":"چهار راه آبرسان- جنب بانک ملت","sHours":"","sAreaCode":"041","sTel1":"33354403","sTel2":"","sLat":"38.065943","sLong":"46.323244","sVerified":"YES","bCategoryId":"2"},{"_id":"55fe651b333e921100bf3944","bId":"85","sId":"22","sName":"فروشگاه نمونه","bName":"SAMSUNG","bCategory":"موبایل","bDistributor":"پارس سامتل","sCity":"تبریز","sAddress":"چهار راه شریعتی، بازار بزرگ شریعتی، پلاک 1","sHours":"","sAreaCode":"041","sTel1":"35546646","sTel2":"","sLat":"38.07442","sLong":"46.287266","sVerified":"YES","bCategoryId":"10"},{"_id":"566862b68022ef11004375fb","bId":"277","sId":"76","sName":"داروخانه دکتر اسکندری نژاد","bName":"KLORANE","bCategory":"آرایش و زیبایی","bDistributor":"شرکت ماهتاب کیش","sCity":"تبریز","sAddress":"خیابان 17 شهریور جدید- چهار راه باغشمال","sHours":"","sAreaCode":"041","sTel1":"35530403","sTel2":"","sLat":"38.068216","sLong":"46.296906","sVerified":"YES","bCategoryId":"2"},{"_id":"567e7427e810af1100ff1244","bId":"286","sId":"74","sName":"داروخانه دکتر نائبی","bName":"GALENIC","bCategory":"آرایش و زیبایی","bDistributor":"شرکت ماهتاب کیش","sCity":"تبریز","sAddress":"خیابان 17 شهریور جدید- روبروی برج امپراطور","sHours":"","sAreaCode":"041","sTel1":"35541872","sTel2":"","sLat":"38.068081","sLong":"46.285675","sVerified":"YES","bCategoryId":"2"},{"_id":"56682cb98022ef11004375ab","bId":"276","sId":"75","sName":"داروخانه دکتر سلطانپور","bName":"Avene","bCategory":"آرایش و زیبایی","bDistributor":"شرکت ماهتاب کیش","sCity":"تبریز","sAddress":"خیابان 17 شهریور جدید- روبروی کلینیک فرهنگیان","sHours":"","sAreaCode":"041","sTel1":"35560510","sTel2":"","sLat":"38.0685221","sLong":"46.2916583","sVerified":"YES","bCategoryId":"2"},{"_id":"569dd53d64f9a81100285ce5","bId":"312","sId":"3","sName":"DERiMOD","bName":"DERiMOD","bCategory":"چرم","bDistributor":"","sCity":"تبریز","sAddress":"باغمیشه ،اتوبان کنار گذر شمال ","sHours":"","sAreaCode":"041","sTel1":"36600200","sTel2":"","sLat":"38.072439","sLong":"46.368694","sVerified":"NO","bCategoryId":"9"}]