[{"_id":"571db3f91fac931100bfeac0","bId":"7","sId":"6","sName":"MANGO","bName":"MANGO","bCategory":"پوشاک بانوان","bDistributor":"Fashion Aria mode","sCity":"شیراز","sAddress":"خیابان ستارخان نبش کوچه پنجم ","sHours":"10~22","sAreaCode":"071","sTel1":"36262254","sTel2":"","sLat":"29.6305552","sLong":"52.496068","sDiscount":0,"sVerified":"YES"},{"_id":"571db41e1fac931100bfeacd","bId":"311","sId":"305","sName":"CONVERSE","bName":"CONVERSE","bCategory":"کفش","bDistributor":"دانيالي","sCity":"شیراز","sAddress":"عفيف آباد - تجاري ١ (زيرزمين) - پلاك ٠٠٦٦","sHours":"١٠:١٥ - ١٤:٠٠ و ١٧:٣٠ - ٢٢:٤٥","sAreaCode":"071","sTel1":"36282318","sTel2":"","sLat":"29.627141","sLong":"52.505454","sDiscount":0,"sVerified":"No"},{"_id":"56a49ae78351741100b0199f","bId":"20","sId":"23","sName":"nike","bName":"Nike","bCategory":"پوشاک ورزشی","bDistributor":"","sCity":"شیراز","sAddress":"بلوار ستارخان، جنب رستوران صوفی","sHours":"","sAreaCode":"071","sTel1":"36491900","sTel2":"","sLat":"29.631636","sLong":"52.494509","sVerified":"NO"},{"_id":"56ac87071fd15e11001ab746","bId":"259","sId":"2","sName":"LI-NING","bName":"LI-NING","bCategory":"پوشاک ورزشی","bDistributor":"","sCity":"شیراز","sAddress":"ميدان سنگى،ابتداى ستارخان","sHours":"","sAreaCode":"071","sTel1":"36481888","sTel2":"","sLat":"29.621498","sLong":"52.50517","sVerified":"NO"},{"_id":"56adc200eabff21100211599","bId":"45","sId":"10","sName":"گراد","bName":"GERAD","bCategory":"پوشاک آقایان","bDistributor":"گراد","sCity":"شیراز","sAddress":"خیابان ستارخان، بین عفیف آباد و ولی عصر","sHours":"10~14,17~22","sAreaCode":"071","sTel1":"36285568","sTel2":"","sLat":"29.626688","sLong":"52.49914","sDiscount":0,"sVerified":"YES"},{"_id":"56b314ee5de5ac1100324770","bId":"3","sId":"10","sName":"benetton","bName":"Benetton","bCategory":"پوشاک","bDistributor":"کاسپین مد","sCity":"شیراز","sAddress":"میدان سنگی، ابتدای بلوار ستارخان","sHours":"10~22","sAreaCode":"071","sTel1":"36480802","sTel2":"","sLat":"29.6216647","sLong":"52.5047506","sDiscount":0,"sVerified":"YES"},{"_id":"56ceca75c6fd6111004c196f","bId":"24","sId":"4","sName":"Debenhams","bName":"Debenhams","bCategory":"پوشاک","bDistributor":"شرکت لیلیان","sCity":"شیراز","sAddress":"میدان سنگی ابتدای خیابان ستارخان ساختمان دبنهامز ","sHours":"10~22","sAreaCode":"071","sTel1":"36481515","sTel2":"","sLat":"29.6215812","sLong":"52.5037245","sDiscount":0,"sVerified":"YES"},{"_id":"56ceccfcc6fd6111004c19b5","bId":"60","sId":"30","sName":"چرم مشهد","bName":"mashad leather","bCategory":"چرم","bDistributor":"چرم مشهد","sCity":"شيراز","sAddress":"انتهای خیابان عفیف آباد، بعد از مجتمع حافظ","sHours":"9~14,17~22:30","sAreaCode":"071","sTel1":"36483322","sTel2":"","sLat":"29.627074","sLong":"52.50595","sDiscount":0,"sVerified":"YES"},{"_id":"56ced5a3c6fd6111004c1a07","bId":"59","sId":"14","sName":"درسا","bName":"DORSA","bCategory":"چرم","bDistributor":"درسا","sCity":"شیراز","sAddress":"بلوار زرگری(مطهری شمالی)-نبش کوچه ۲۰-روبروی درب اصلی بیمارستان دکتر خدادوست","sHours":"9:30~13:30,17~22","sAreaCode":"071","sTel1":"36493955","sTel2":"","sLat":"29.6301184","sLong":"52.5003362","sDiscount":0,"sVerified":"YES"},{"_id":"56ced9c6c6fd6111004c1a35","bId":"237","sId":"8","sName":"361","bName":"361","bCategory":"پوشاک ورزشی","bDistributor":"","sCity":"شیراز","sAddress":" ورودی شهر جدید صدرا، مجتمع خلیح فارس","sHours":"","sAreaCode":"071","sTel1":"36665904","sTel2":"","sLat":"29.756316","sLong":"52.433198","sDiscount":0,"sVerified":"NO"},{"_id":"56ced9e0c6fd6111004c1a3a","bId":"237","sId":"7","sName":"361","bName":"361","bCategory":"پوشاک ورزشی","bDistributor":"","sCity":"شیراز","sAddress":"قدوسی غربی","sHours":"","sAreaCode":"071","sTel1":"38431272","sTel2":"","sLat":"29.641865","sLong":"52.471987","sDiscount":0,"sVerified":"NO"},{"_id":"56ceda1bc6fd6111004c1a45","bId":"55","sId":"4","sName":"Firs","bName":"Firs","bCategory":"پوشاک آقایان","bDistributor":"","sCity":"شیراز","sAddress":"ستارخان ، نرسیده به عفیف آباد","sHours":"","sAreaCode":"071","sTel1":"36290585","sTel2":"","sLat":"29.624154","sLong":"52.50187","sDiscount":0,"sVerified":"NO"},{"_id":"56c612c219dc101100a2f7a6","bId":"323","sId":"299","sName":"مانوك","bName":"PANCO","bCategory":"لوازم و پوشاک کودک","bDistributor":"نوزادي-بچه گانه","sCity":"شیراز","sAddress":"معالي اباد-مجتمع افتاب بزرگ،تجاري 1پلاك 346","sHours":"10-23","sAreaCode":"071","sTel1":"36354423","sTel2":"","sLat":"29.684117","sLong":"52.470690","sVerified":"No","bLogo":"panco"},{"_id":"56cbf9f7acc79b11005c2e01","bId":"62","sId":"8","sName":"پاندورا","bName":"PANDORA","bCategory":"چرم","bDistributor":"پاندورا","sCity":"شیراز","sAddress":"معالی آباد مجتمع آفتاب فارس طبقه اول واحد 301","sHours":"","sAreaCode":"071","sTel1":"36352735","sTel2":"","sLat":"29.685414","sLong":"52.471584","sDiscount":0,"sVerified":"YES"},{"_id":"56ceca42c6fd6111004c196a","bId":"16","sId":"6","sName":"ecco","bName":"ecco","bCategory":"کفش","bDistributor":"","sCity":"شیراز","sAddress":"بلوار ستارخان ","sHours":"10~22","sAreaCode":"071","sTel1":"36275064","sTel2":"","sLat":"29.6240338","sLong":"52.5015748","sDiscount":0,"sVerified":"NO"},{"_id":"56ceccfcc6fd6111004c19b6","bId":"60","sId":"31","sName":"چرم مشهد","bName":"mashad leather","bCategory":"چرم","bDistributor":"چرم مشهد","sCity":"شيراز","sAddress":"مجتمع تجاری تفریحی خلیج فارس، تجاری 4، بازار ابریشم، پلاک 4019","sHours":"9:30~13:30,17~22","sAreaCode":"071","sTel1":"36665839","sTel2":"","sLat":"29.7572128","sLong":"52.4338388","sDiscount":0,"sVerified":"YES"},{"_id":"571db3a51fac931100bfeaa7","bId":"22","sId":"3","sName":"KOTON","bName":"KOTON","bCategory":"پوشاک","bDistributor":"","sCity":"شیراز","sAddress":"مجتمع تجاری خلیج فارس ","sHours":"10~22","sAreaCode":"071","sTel1":"36667133","sTel2":"","sLat":"29.7579202","sLong":"29.7579202","sDiscount":0,"sVerified":"NO"},{"_id":"569e037f64f9a81100285d43","bId":"349","sId":"9","sName":"maxim","bName":"maxim","bCategory":"پوشاک آقایان","bDistributor":"ماکسیم","sCity":"شیراز","sAddress":"هتل بین المللی پارس","sHours":"","sAreaCode":"071","sTel1":"32357763","sTel2":"","sLat":"29.627815","sLong":"52.554261","sVerified":"YES"},{"_id":"569e0f4464f9a81100285d53","bId":"353","sId":"5","sName":"المپيك اسپرت","bName":"billcee","bCategory":"پوشاک ورزشی","bDistributor":"billcee","sCity":"شیراز","sAddress":"قصرالدشت، خيابان رحمت آباد، نبش كوچه 45 ","sHours":"","sAreaCode":"071","sTel1":"36283137","sTel2":"","sLat":"29.626064","sLong":"52.51295","sVerified":"YES"},{"_id":"569e0f7064f9a81100285d54","bId":"353","sId":"6","sName":"billcee","bName":"billcee","bCategory":"پوشاک ورزشی","bDistributor":"billcee","sCity":"شیراز","sAddress":"ميدان مطهري- قدوسي شرقي-جنب مجتمع سلطانييه","sHours":"","sAreaCode":"071","sTel1":"38431870","sTel2":"","sLat":"29.62952","sLong":"52.482673","sVerified":"YES"},{"_id":"569e549564f9a81100285d83","bId":"12","sId":"7","sName":"GIORDANO","bName":"GIORDANO","bCategory":"پوشاک","bDistributor":"","sCity":"شیراز","sAddress":"مرکز خرید زیتون ","sHours":"10~22","sAreaCode":"071","sTel1":"32351565","sTel2":"","sLat":"29.6194225","sLong":"52.5272648","sDiscount":0,"sVerified":"NO"},{"_id":"56966638c063471100aaf9cf","bId":"291","sId":"63","sName":"فروشگاه لارین","bName":"Marilou BIO","bCategory":"آرایش و زیبایی","bDistributor":"شرکت ماهتاب کیش","sCity":"شیراز","sAddress":"خیابان انوری پاساژ بحرین","sHours":"","sAreaCode":"071","sTel1":"32296140","sTel2":"","sLat":"29.619217","sLong":"52.53713","sVerified":"YES"},{"_id":"56966667c063471100aaf9d0","bId":"291","sId":"64","sName":"داروخانه دکتر اجتهادی(ساسان)","bName":"Marilou BIO","bCategory":"آرایش و زیبایی","bDistributor":"شرکت ماهتاب کیش","sCity":"شیراز","sAddress":" فلکه گاز","sHours":"","sAreaCode":"071","sTel1":"32292004","sTel2":"","sLat":"29.631944","sLong":"52.5384648","sVerified":"YES"},{"_id":"56966696c063471100aaf9d1","bId":"291","sId":"65","sName":"داروخانه دکتر آقاپور","bName":"Marilou BIO","bCategory":"آرایش و زیبایی","bDistributor":"شرکت ماهتاب کیش","sCity":"شیراز","sAddress":"خیابان زند","sHours":"","sAreaCode":"071","sTel1":"32330790","sTel2":"","sLat":"29.6134089","sLong":"52.5494856","sVerified":"YES"},{"_id":"569666c1c063471100aaf9d2","bId":"291","sId":"66","sName":"داروخانه دکتر مصلی نژاد","bName":"Marilou BIO","bCategory":"آرایش و زیبایی","bDistributor":"شرکت ماهتاب کیش","sCity":"شیراز","sAddress":"ابتدای خیابان عفیف آباد","sHours":"","sAreaCode":"071","sTel1":"36281180","sTel2":"","sLat":"29.625006","sLong":"52.501929","sVerified":"YES"},{"_id":"5697b6c84ff2d91100cd6eb2","bId":"8","sId":"19","sName":"Jeanwest","bName":"Jeanswest","bCategory":"پوشاک","bDistributor":"بانی مد","sCity":"شیراز","sAddress":"شيـــراز، معالـــي آباد ، نبــش خيــابـان پـزشـكـان","sHours":"10~22","sAreaCode":"071","sTel1":"36340502","sTel2":"","sLat":"29.679904","sLong":"52.459007","sVerified":"YES"},{"_id":"5697bda64ff2d91100cd6eb7","bId":"257","sId":"5","sName":"baleno","bName":"baleno","bCategory":"پوشاک","bDistributor":"بانی مد","sCity":"شیراز","sAddress":"ستارخان، بعد از تقاطع عفیف آباد ، طبقه دوم فروشگاه جین وست","sHours":"","sAreaCode":"071","sTel1":"36284263","sTel2":"","sLat":"29.6246358","sLong":"52.5014709","sVerified":"YES"},{"_id":"569cf6e7dcb95d1100007f49","bId":"376","sId":"5","sName":"samuel&kevin","bName":"samuel&kevin","bCategory":"پوشاک","bDistributor":"بانی مد","sCity":"شیراز","sAddress":"ستارخان، بعد از تقاطع عفیف آباد ، طبقه دوم فروشگاه جین وست","sHours":"","sAreaCode":"071","sTel1":"36284264","sTel2":"","sLat":"29.6246358","sLong":"52.5014709","sVerified":"YES"},{"_id":"569de07664f9a81100285cf6","bId":"314","sId":"17","sName":"MARAL Leather","bName":"MARAL Leather","bCategory":"چرم","bDistributor":"چرم مارال","sCity":"شیراز","sAddress":"انتهای عفیف آباد، روبه روی کوچه 20","sHours":"","sAreaCode":"071","sTel1":"36290007","sTel2":"","sLat":"29.624764","sLong":"52.501565","sVerified":"YES"},{"_id":"562359ecebc975110095c69d","bId":"182","sId":"11","sName":"فروشگاه زیروتن","bName":"ZEROTEN","bCategory":"لوازم و پوشاک کودک","bDistributor":"زیروتن","sCity":"شیراز","sAddress":"خیابان ستارخان - مجتمع بهاران - جنب سوپر سروش","sHours":"","sAreaCode":"071","sTel1":"36292081","sTel2":"","sLat":"29.629507","sLong":"52.4968801","sVerified":"YES"},{"_id":"562368ffebc975110095c6b2","bId":"185","sId":"9","sName":"هایپر استار شیراز","bName":"SEVEN POON","bCategory":"لوازم و پوشاک کودک","bDistributor":"شرکت سون پون","sCity":"شیراز","sAddress":"جاده سپیدان، روبروی شهرک گلستان، مجتمع تجاری تفریحی خلیج فارس ","sHours":"","sAreaCode":"071","sTel1":"36206831","sTel2":"","sLat":"29.7560839","sLong":"52.4340555","sVerified":"YES"},{"_id":"566828798022ef110043759e","bId":"276","sId":"63","sName":"فروشگاه لارین","bName":"Avene","bCategory":"آرایش و زیبایی","bDistributor":"شرکت ماهتاب کیش","sCity":"شیراز","sAddress":"خیابان انوری پاساژ بحرین","sHours":"","sAreaCode":"071","sTel1":"32296140","sTel2":"","sLat":"29.619217","sLong":"52.53713","sVerified":"YES"},{"_id":"566828b68022ef110043759f","bId":"276","sId":"64","sName":"داروخانه دکتر اجتهادی(ساسان)","bName":"Avene","bCategory":"آرایش و زیبایی","bDistributor":"شرکت ماهتاب کیش","sCity":"شیراز","sAddress":" فلکه گاز","sHours":"","sAreaCode":"071","sTel1":"32292004","sTel2":"","sLat":"29.631944","sLong":"52.5384648","sVerified":"YES"},{"_id":"56682a3e8022ef11004375a1","bId":"276","sId":"65","sName":"داروخانه دکتر آقاپور","bName":"Avene","bCategory":"آرایش و زیبایی","bDistributor":"شرکت ماهتاب کیش","sCity":"شیراز","sAddress":"خیابان زند","sHours":"","sAreaCode":"071","sTel1":"32330790","sTel2":"","sLat":"29.6134089","sLong":"52.5494856","sVerified":"YES"},{"_id":"56682aa88022ef11004375a2","bId":"276","sId":"66","sName":"داروخانه دکتر مصلی نژاد","bName":"Avene","bCategory":"آرایش و زیبایی","bDistributor":"شرکت ماهتاب کیش","sCity":"شیراز","sAddress":"ابتدای خیابان عفیف آباد","sHours":"","sAreaCode":"071","sTel1":"36281180","sTel2":"","sLat":"29.625006","sLong":"52.501929","sVerified":"YES"},{"_id":"56685e098022ef11004375ec","bId":"277","sId":"63","sName":"فروشگاه لارین","bName":"KLORANE","bCategory":"آرایش و زیبایی","bDistributor":"شرکت ماهتاب کیش","sCity":"شیراز","sAddress":"خیابان انوری پاساژ بحرین","sHours":"","sAreaCode":"071","sTel1":"32296140","sTel2":"","sLat":"29.619217","sLong":"52.53713","sVerified":"YES"},{"_id":"56685e378022ef11004375ed","bId":"277","sId":"64","sName":"داروخانه دکتر اجتهادی(ساسان)","bName":"KLORANE","bCategory":"آرایش و زیبایی","bDistributor":"شرکت ماهتاب کیش","sCity":"شیراز","sAddress":" فلکه گاز","sHours":"","sAreaCode":"071","sTel1":"32292004","sTel2":"","sLat":"29.631944","sLong":"52.5384648","sVerified":"YES"},{"_id":"56685ecd8022ef11004375ee","bId":"277","sId":"65","sName":"داروخانه دکتر آقاپور","bName":"KLORANE","bCategory":"آرایش و زیبایی","bDistributor":"شرکت ماهتاب کیش","sCity":"شیراز","sAddress":"خیابان زند","sHours":"","sAreaCode":"071","sTel1":"32330790","sTel2":"","sLat":"29.6134089","sLong":"52.5494856","sVerified":"YES"},{"_id":"56685f378022ef11004375ef","bId":"277","sId":"66","sName":"داروخانه دکتر مصلی نژاد","bName":"KLORANE","bCategory":"آرایش و زیبایی","bDistributor":"شرکت ماهتاب کیش","sCity":"شیراز","sAddress":"ابتدای خیابان عفیف آباد","sHours":"","sAreaCode":"071","sTel1":"36281180","sTel2":"","sLat":"29.625006","sLong":"52.501929","sVerified":"YES"},{"_id":"56a366b6dcf69611008cdda5","bId":"44","sId":"8","sName":"هاکوپیان","bName":"Hacoupian","bCategory":"پوشاک آقایان","bDistributor":"هاکوپیان","sCity":"شيراز","sAddress":"بلوار قدوسي غربي، نبش خيابان 19","sHours":"9~13,16~22","sAreaCode":"071","sTel1":"36305156","sTel2":"","sLat":"29.6385161","sLong":"52.4755877","sDiscount":0,"sVerified":"YES"},{"_id":"55fa8293f0e3d61100a00a55","bId":"64","sId":"8","sName":"بوفالو سیاه","bName":"Black Buffalo","bCategory":"چرم","bDistributor":"بوفالو سیاه","sCity":"شیراز","sAddress":"خیابان معالی آباد حدفاصل خیابان پزشکان و دوستان بعداز بانک گردشگری جنب گل ایده ","sHours":"","sAreaCode":"071","sTel1":"36340156","sTel2":"","sLat":"29.680098","sLong":"52.459337","sVerified":"YES"},{"_id":"55fe5afa333e921100bf3929","bId":"84","sId":"27","sName":"Apple Golshan","bName":"Apple","bCategory":"موبایل","bDistributor":"","sCity":"شیراز","sAddress":"ستارخان ، روبروی ولیعصر","sHours":"","sAreaCode":"071","sTel1":"36278120","sTel2":"","sLat":"29.6284226","sLong":"52.4979451","sVerified":"NO"},{"_id":"55fe5b34333e921100bf392a","bId":"84","sId":"28","sName":"Apple Golshan","bName":"Apple","bCategory":"موبایل","bDistributor":"","sCity":"شیراز","sAddress":"معالی آباد ، مجتمع افتاب کوچک","sHours":"10~13:30,17~22:30","sAreaCode":"071","sTel1":"36362717","sTel2":"","sLat":"29.6832886","sLong":"52.4672312","sVerified":"NO"},{"_id":"55fe5b65333e921100bf392b","bId":"84","sId":"29","sName":"Apple Golshan","bName":"Apple","bCategory":"موبایل","bDistributor":"","sCity":"شیراز","sAddress":"چهار راه خاکشناسی","sHours":"10~13,17~22","sAreaCode":"071","sTel1":"32294376","sTel2":"","sLat":"29.6346256","sLong":"52.5314535","sVerified":"NO"},{"_id":"55fe5b92333e921100bf392c","bId":"84","sId":"30","sName":"Apple Golshan","bName":"Apple","bCategory":"موبایل","bDistributor":"","sCity":"شیراز","sAddress":"معالی آباد-ابتدای خلبانان-بازارچه دنا","sHours":"","sAreaCode":"071","sTel1":"36233780","sTel2":"","sLat":"29.6823469","sLong":"52.4649525","sVerified":"NO"},{"_id":"55fe656b333e921100bf3945","bId":"85","sId":"23","sName":"موبایل چشم انداز","bName":"SAMSUNG","bCategory":"موبایل","bDistributor":"پارس سامتل","sCity":"شیراز","sAddress":"خیابان ملاصدرا، جنب دفتر زیارتی سماء","sHours":"","sAreaCode":"071","sTel1":"32354584","sTel2":"","sLat":"29.625481","sLong":"52.517556","sVerified":"YES"},{"_id":"55fe97f5333e921100bf3972","bId":"89","sId":"15","sName":"موبایل چشم انداز","bName":"ZTE","bCategory":"موبایل","bDistributor":"پارس سامتل","sCity":"شیراز","sAddress":"خیابان ملاصدرا، جنب دفتر زیارتی سماء","sHours":"","sAreaCode":"071","sTel1":"32354584","sTel2":"","sLat":"29.625481","sLong":"52.517556","sVerified":"YES"},{"_id":"55fe9efe333e921100bf3984","bId":"90","sId":"15","sName":"موبایل چشم انداز","bName":"acer","bCategory":"موبایل","bDistributor":"پارس سامتل","sCity":"شیراز","sAddress":"خیابان ملاصدرا، جنب دفتر زیارتی سماء","sHours":"","sAreaCode":"071","sTel1":"32354584","sTel2":"","sLat":"29.625481","sLong":"52.517556","sVerified":"YES"},{"_id":"56a202647796f6110049fde3","bId":"2","sId":"18","sName":"adidas","bName":"adidas","bCategory":"پوشاک ورزشی","bDistributor":"","sCity":"شیراز","sAddress":"بلوار ستارخان، نبش کوچه 8 الف","sHours":"","sAreaCode":"071","sTel1":"36288442","sTel2":"","sLat":"29.624956","sLong":"52.50046","sVerified":"NO"},{"_id":"567680181082b811002ad507","bId":"285","sId":"61","sName":"فروشگاه لارین","bName":"DUCRAY","bCategory":"آرایش و زیبایی","bDistributor":"شرکت ماهتاب کیش","sCity":"شیراز","sAddress":"خیابان انوری پاساژ بحرین","sHours":"","sAreaCode":"071","sTel1":"32296140","sTel2":"","sLat":"29.619217","sLong":"52.53713","sVerified":"YES"},{"_id":"567680721082b811002ad508","bId":"285","sId":"62","sName":"داروخانه دکتر اجتهادی(ساسان)","bName":"DUCRAY","bCategory":"آرایش و زیبایی","bDistributor":"شرکت ماهتاب کیش","sCity":"شیراز","sAddress":" فلکه گاز","sHours":"","sAreaCode":"071","sTel1":"32292004","sTel2":"","sLat":"29.631944","sLong":"52.5384648","sVerified":"YES"},{"_id":"567680e41082b811002ad50a","bId":"285","sId":"64","sName":"داروخانه دکتر آقاپور","bName":"DUCRAY","bCategory":"آرایش و زیبایی","bDistributor":"شرکت ماهتاب کیش","sCity":"شیراز","sAddress":"خیابان زند","sHours":"","sAreaCode":"071","sTel1":"32330790","sTel2":"","sLat":"29.6134089","sLong":"52.5494856","sVerified":"YES"},{"_id":"567682281082b811002ad50b","bId":"285","sId":"63","sName":"داروخانه دکتر مصلی نژاد","bName":"DUCRAY","bCategory":"آرایش و زیبایی","bDistributor":"شرکت ماهتاب کیش","sCity":"شیراز","sAddress":"ابتدای خیابان عفیف آباد","sHours":"","sAreaCode":"071","sTel1":"36281180","sTel2":"","sLat":"29.625006","sLong":"52.501929","sVerified":"YES"},{"_id":"567691bc1082b811002ad50f","bId":"285","sId":"68","sName":"داروخانه پردیس","bName":"DUCRAY","bCategory":"آرایش و زیبایی","bDistributor":"شرکت ماهتاب کیش","sCity":"کیش","sAddress":"بازارچه حافظ- پلاک S27","sHours":"","sAreaCode":"071","sTel1":"44422419","sTel2":"","sLat":"26.5398548","sLong":"54.021617","sVerified":"YES"},{"_id":"567e63d4e810af1100ff1238","bId":"286","sId":"63","sName":"فروشگاه لارین","bName":"GALENIC","bCategory":"آرایش و زیبایی","bDistributor":"شرکت ماهتاب کیش","sCity":"شیراز","sAddress":"خیابان انوری پاساژ بحرین","sHours":"","sAreaCode":"071","sTel1":"32296140","sTel2":"","sLat":"29.619217","sLong":"52.53713","sVerified":"YES"},{"_id":"567e67d7e810af1100ff1239","bId":"286","sId":"64","sName":"داروخانه دکتر اجتهادی(ساسان)","bName":"GALENIC","bCategory":"آرایش و زیبایی","bDistributor":"شرکت ماهتاب کیش","sCity":"شیراز","sAddress":" فلکه گاز","sHours":"","sAreaCode":"071","sTel1":"32292004","sTel2":"","sLat":"29.631944","sLong":"52.5384648","sVerified":"YES"},{"_id":"567e6aefe810af1100ff123a","bId":"286","sId":"65","sName":"داروخانه دکتر آقاپور","bName":"GALENIC","bCategory":"آرایش و زیبایی","bDistributor":"شرکت ماهتاب کیش","sCity":"شیراز","sAddress":"خیابان زند","sHours":"","sAreaCode":"071","sTel1":"32330790","sTel2":"","sLat":"29.6134089","sLong":"52.5494856","sVerified":"YES"},{"_id":"567e6b65e810af1100ff123b","bId":"286","sId":"66","sName":"داروخانه دکتر مصلی نژاد","bName":"GALENIC","bCategory":"آرایش و زیبایی","bDistributor":"شرکت ماهتاب کیش","sCity":"شیراز","sAddress":"ابتدای خیابان عفیف آباد","sHours":"","sAreaCode":"071","sTel1":"36281180","sTel2":"","sLat":"29.625006","sLong":"52.501929","sVerified":"YES"},{"_id":"567e6bc4e810af1100ff123c","bId":"286","sId":"67","sName":"فروشگاه سندوس","bName":"GALENIC","bCategory":"آرایش و زیبایی","bDistributor":"شرکت ماهتاب کیش","sCity":"کیش","sAddress":"مرکز تجاری کیش- طبقه همکف","sHours":"","sAreaCode":"071","sTel1":"44452502","sTel2":"","sLat":"26.5422084","sLong":"54.0191332","sVerified":"YES"},{"_id":"567e6f9fe810af1100ff123f","bId":"286","sId":"69","sName":"فروشگاه ندای کیش","bName":"GALENIC","bCategory":"آرایش و زیبایی","bDistributor":"شرکت ماهتاب کیش","sCity":"کیش","sAddress":"بازار پردیس2- غرفه 116","sHours":"","sAreaCode":"071","sTel1":"44456370","sTel2":"","sLat":"26.5364974","sLong":"54.0206013","sVerified":"YES"},{"_id":"5691002a18eda411006af871","bId":"287","sId":"63","sName":"فروشگاه لارین","bName":"Rene Furterer","bCategory":"آرایش و زیبایی","bDistributor":"شرکت ماهتاب کیش","sCity":"شیراز","sAddress":"خیابان انوری پاساژ بحرین","sHours":"","sAreaCode":"071","sTel1":"32296140","sTel2":"","sLat":"29.619217","sLong":"52.53713","sVerified":"YES"},{"_id":"569100bd18eda411006af872","bId":"287","sId":"64","sName":"داروخانه دکتر اجتهادی(ساسان)","bName":"Rene Furterer","bCategory":"آرایش و زیبایی","bDistributor":"شرکت ماهتاب کیش","sCity":"شیراز","sAddress":" فلکه گاز","sHours":"","sAreaCode":"071","sTel1":"32292004","sTel2":"","sLat":"29.631944","sLong":"52.5384648","sVerified":"YES"},{"_id":"569100f918eda411006af873","bId":"287","sId":"65","sName":"داروخانه دکتر آقاپور","bName":"Rene Furterer","bCategory":"آرایش و زیبایی","bDistributor":"شرکت ماهتاب کیش","sCity":"شیراز","sAddress":"خیابان زند","sHours":"","sAreaCode":"071","sTel1":"32330790","sTel2":"","sLat":"29.6134089","sLong":"52.5494856","sVerified":"YES"},{"_id":"5691012b18eda411006af874","bId":"287","sId":"66","sName":"داروخانه دکتر مصلی نژاد","bName":"Rene Furterer","bCategory":"آرایش و زیبایی","bDistributor":"شرکت ماهتاب کیش","sCity":"شیراز","sAddress":"ابتدای خیابان عفیف آباد","sHours":"","sAreaCode":"071","sTel1":"36281180","sTel2":"","sLat":"29.625006","sLong":"52.501929","sVerified":"YES"},{"_id":"56935fffd4d3571100d11992","bId":"288","sId":"63","sName":"فروشگاه لارین","bName":"miss eden","bCategory":"آرایش و زیبایی","bDistributor":"شرکت ماهتاب کیش","sCity":"شیراز","sAddress":"خیابان انوری پاساژ بحرین","sHours":"","sAreaCode":"071","sTel1":"32296140","sTel2":"","sLat":"29.619217","sLong":"52.53713","sVerified":"YES"},{"_id":"5693612bd4d3571100d11993","bId":"288","sId":"64","sName":"داروخانه دکتر اجتهادی(ساسان)","bName":"miss eden","bCategory":"آرایش و زیبایی","bDistributor":"شرکت ماهتاب کیش","sCity":"شیراز","sAddress":" فلکه گاز","sHours":"","sAreaCode":"071","sTel1":"32292004","sTel2":"","sLat":"29.631944","sLong":"52.5384648","sVerified":"YES"},{"_id":"56936155d4d3571100d11994","bId":"288","sId":"65","sName":"داروخانه دکتر آقاپور","bName":"miss eden","bCategory":"آرایش و زیبایی","bDistributor":"شرکت ماهتاب کیش","sCity":"شیراز","sAddress":"خیابان زند","sHours":"","sAreaCode":"071","sTel1":"32330790","sTel2":"","sLat":"29.6134089","sLong":"52.5494856","sVerified":"YES"},{"_id":"56936183d4d3571100d11995","bId":"288","sId":"66","sName":"داروخانه دکتر مصلی نژاد","bName":"miss eden","bCategory":"آرایش و زیبایی","bDistributor":"شرکت ماهتاب کیش","sCity":"شیراز","sAddress":"ابتدای خیابان عفیف آباد","sHours":"","sAreaCode":"071","sTel1":"36281180","sTel2":"","sLat":"29.625006","sLong":"52.501929","sVerified":"YES"},{"_id":"5693c5a4d4d3571100d119e0","bId":"289","sId":"63","sName":"فروشگاه لارین","bName":"comfort zone","bCategory":"آرایش و زیبایی","bDistributor":"شرکت ماهتاب کیش","sCity":"شیراز","sAddress":"خیابان انوری پاساژ بحرین","sHours":"","sAreaCode":"071","sTel1":"32296140","sTel2":"","sLat":"29.619217","sLong":"52.53713","sVerified":"YES"},{"_id":"5693c5dcd4d3571100d119e1","bId":"289","sId":"64","sName":"داروخانه دکتر اجتهادی(ساسان)","bName":"comfort zone","bCategory":"آرایش و زیبایی","bDistributor":"شرکت ماهتاب کیش","sCity":"شیراز","sAddress":" فلکه گاز","sHours":"","sAreaCode":"071","sTel1":"32292004","sTel2":"","sLat":"29.631944","sLong":"52.5384648","sVerified":"YES"},{"_id":"5693c607d4d3571100d119e2","bId":"289","sId":"65","sName":"داروخانه دکتر آقاپور","bName":"comfort zone","bCategory":"آرایش و زیبایی","bDistributor":"شرکت ماهتاب کیش","sCity":"شیراز","sAddress":"خیابان زند","sHours":"","sAreaCode":"071","sTel1":"32330790","sTel2":"","sLat":"29.6134089","sLong":"52.5494856","sVerified":"YES"},{"_id":"5693c6ebd4d3571100d119e3","bId":"289","sId":"66","sName":"داروخانه دکتر مصلی نژاد","bName":"comfort zone","bCategory":"آرایش و زیبایی","bDistributor":"شرکت ماهتاب کیش","sCity":"شیراز","sAddress":"ابتدای خیابان عفیف آباد","sHours":"","sAreaCode":"071","sTel1":"36281180","sTel2":"","sLat":"29.625006","sLong":"52.501929","sVerified":"YES"},{"_id":"56951a31170dd31100be5533","bId":"290","sId":"63","sName":"فروشگاه لارین","bName":"PAYOT","bCategory":"آرایش و زیبایی","bDistributor":"شرکت ماهتاب کیش","sCity":"شیراز","sAddress":"خیابان انوری پاساژ بحرین","sHours":"","sAreaCode":"071","sTel1":"32296140","sTel2":"","sLat":"29.619217","sLong":"52.53713","sVerified":"YES"},{"_id":"56951a5b170dd31100be5534","bId":"290","sId":"64","sName":"داروخانه دکتر اجتهادی(ساسان)","bName":"PAYOT","bCategory":"آرایش و زیبایی","bDistributor":"شرکت ماهتاب کیش","sCity":"شیراز","sAddress":" فلکه گاز","sHours":"","sAreaCode":"071","sTel1":"32292004","sTel2":"","sLat":"29.631944","sLong":"52.5384648","sVerified":"YES"},{"_id":"56951a86170dd31100be5535","bId":"290","sId":"65","sName":"داروخانه دکتر آقاپور","bName":"PAYOT","bCategory":"آرایش و زیبایی","bDistributor":"شرکت ماهتاب کیش","sCity":"شیراز","sAddress":"خیابان زند","sHours":"","sAreaCode":"071","sTel1":"32330790","sTel2":"","sLat":"29.6134089","sLong":"52.5494856","sVerified":"YES"},{"_id":"56951ab1170dd31100be5536","bId":"290","sId":"66","sName":"داروخانه دکتر مصلی نژاد","bName":"PAYOT","bCategory":"آرایش و زیبایی","bDistributor":"شرکت ماهتاب کیش","sCity":"شیراز","sAddress":"ابتدای خیابان عفیف آباد","sHours":"","sAreaCode":"071","sTel1":"36281180","sTel2":"","sLat":"29.625006","sLong":"52.501929","sVerified":"YES"},{"_id":"56951ade170dd31100be5537","bId":"290","sId":"67","sName":"فروشگاه سندوس","bName":"PAYOT","bCategory":"آرایش و زیبایی","bDistributor":"شرکت ماهتاب کیش","sCity":"کیش","sAddress":"مرکز تجاری کیش- طبقه همکف","sHours":"","sAreaCode":"071","sTel1":"44452502","sTel2":"","sLat":"26.5422084","sLong":"54.0191332","sVerified":"YES"},{"_id":"55f523ea421fa41100f3e119","bId":"32","sId":"41","sName":"شاکری","bName":"swatch","bCategory":"ساعت","bDistributor":"شرکت بازرگانی کیش بهین","sCity":"شیراز","sAddress":"عفيف آباد ـ مجتمع تجاري ستاره فارس ـ طبقه همكف تجاري ـ پلاك 6","sHours":"","sAreaCode":"071","sTel1":"36290152","sTel2":"","sLat":"29.627135","sLong":"52.505375","sVerified":"YES"},{"_id":"55f671dba4a13b110061145d","bId":"37","sId":"32","sName":"شاکری","bName":"ck","bCategory":"ساعت","bDistributor":"شرکت بازرگانی کیش بهین","sCity":"شیراز","sAddress":"عفيف آباد ـ مجتمع تجاري ستاره فارس ـ طبقه همكف تجاري ـ پلاك 6","sHours":"","sAreaCode":"071","sTel1":"36290152","sTel2":"","sLat":"29.627135","sLong":"52.505375","sVerified":"YES"},{"_id":"5697b3fe4ff2d91100cd6eaf","bId":"8","sId":"14","sName":"Jeanwest","bName":"Jeanswest","bCategory":"پوشاک","bDistributor":"بانی مد","sCity":"شیراز","sAddress":"خیابان ستارخان بعد از تقاطع عفیف آباد ","sHours":"10~22","sAreaCode":"071","sTel1":"32684264","sTel2":"","sLat":"29.6246358","sLong":"52.5014709","sVerified":"YES"},{"_id":"55f7b63d54e630110066c597","bId":"41","sId":"47","sName":"شاکری","bName":"TISSOT","bCategory":"ساعت","bDistributor":"شرکت بازرگانی کیش بهین","sCity":"شیراز","sAddress":"عفيف آباد ـ مجتمع تجاري ستاره فارس ـ طبقه همكف تجاري ـ پلاك 6","sHours":"","sAreaCode":"071","sTel1":"36290152","sTel2":"","sLat":"29.627135","sLong":"52.505375","sVerified":"YES"},{"_id":"55f7c6ef54e630110066c5bf","bId":"43","sId":"5","sName":"ایکات","bName":"ECUT","bCategory":"پوشاک آقایان","bDistributor":"ایکات","sCity":"شیراز","sAddress":"خیابان ستارخان ، نرسیده به زرگری","sHours":"","sAreaCode":"071","sTel1":"36280695","sTel2":"","sLat":"29.632697","sLong":"52.493615","sVerified":"YES"}]