[{"_id":"56a0c6426fa2e911008b6d4f","bId":"47","sId":"19","sName":"SKECHERS","bName":"SKECHERS","bCategory":"کفش","bDistributor":"iranskechers","sCity":"کیش","sAddress":"بلوار رازی، روبروی بازار پردیس، ساختمان ایران زمین، فروشگاه ورزشی تنتوری","sHours":"","sAreaCode":"076","sTel1":"44421354","sTel2":"","sLat":"26.537985","sLong":"54.020318","sVerified":"YES","bCategoryId":"4"},{"_id":"56768efb1082b811002ad50d","bId":"285","sId":"66","sName":"فروشگاه ندای کیش","bName":"DUCRAY","bCategory":"آرایش و زیبایی","bDistributor":"شرکت ماهتاب کیش","sCity":"کیش","sAddress":"بازار پردیس1- غرفه 92","sHours":"","sAreaCode":"076","sTel1":"44456818","sTel2":"","sLat":"26.5364974","sLong":"54.0206013","sVerified":"YES","bCategoryId":"2"},{"_id":"5693c782d4d3571100d119e6","bId":"289","sId":"69","sName":"فروشگاه ندای کیش","bName":"comfort zone","bCategory":"آرایش و زیبایی","bDistributor":"شرکت ماهتاب کیش","sCity":"کیش","sAddress":"بازار پردیس2- غرفه 116","sHours":"","sAreaCode":"076","sTel1":"44456370","sTel2":"","sLat":"26.5364974","sLong":"54.0206013","sVerified":"YES","bCategoryId":"2"},{"_id":"5693c749d4d3571100d119e5","bId":"289","sId":"68","sName":"فروشگاه ندای کیش","bName":"comfort zone","bCategory":"آرایش و زیبایی","bDistributor":"شرکت ماهتاب کیش","sCity":"کیش","sAddress":"بازار پردیس1- غرفه 92","sHours":"","sAreaCode":"076","sTel1":"44456818","sTel2":"","sLat":"26.5364974","sLong":"54.0206013","sVerified":"YES","bCategoryId":"2"},{"_id":"569361dbd4d3571100d11997","bId":"288","sId":"68","sName":"فروشگاه ندای کیش","bName":"miss eden","bCategory":"آرایش و زیبایی","bDistributor":"شرکت ماهتاب کیش","sCity":"کیش","sAddress":"بازار پردیس1- غرفه 92","sHours":"","sAreaCode":"076","sTel1":"44456818","sTel2":"","sLat":"26.5364974","sLong":"54.0206013","sVerified":"YES","bCategoryId":"2"},{"_id":"569102a418eda411006af876","bId":"287","sId":"68","sName":"فروشگاه ندای کیش","bName":"Rene Furterer","bCategory":"آرایش و زیبایی","bDistributor":"شرکت ماهتاب کیش","sCity":"کیش","sAddress":"بازار پردیس1- غرفه 92","sHours":"","sAreaCode":"076","sTel1":"44456818","sTel2":"","sLat":"26.5364974","sLong":"54.0206013","sVerified":"YES","bCategoryId":"2"},{"_id":"56936248d4d3571100d11999","bId":"288","sId":"70","sName":"داروخانه پردیس","bName":"miss eden","bCategory":"آرایش و زیبایی","bDistributor":"شرکت ماهتاب کیش","sCity":"کیش","sAddress":"بازارچه حافظ- پلاک S27","sHours":"","sAreaCode":"076","sTel1":"44422419","sTel2":"","sLat":"26.5398548","sLong":"54.021617","sVerified":"YES","bCategoryId":"2"},{"_id":"567e6e1ce810af1100ff123d","bId":"286","sId":"67","sName":"فروشگاه سندوس","bName":"GALENIC","bCategory":"آرایش و زیبایی","bDistributor":"شرکت ماهتاب کیش","sCity":"کیش","sAddress":"مرکز تجاری کیش- طبقه همکف","sHours":"","sAreaCode":"076","sTel1":"44452502","sTel2":"","sLat":"26.5422084","sLong":"54.0191332","sVerified":"YES","bCategoryId":"2"},{"_id":"55f40477032ead1100a3cbab","bId":"20","sId":"7","sName":"nike","bName":"Nike","bCategory":"پوشاک ورزشی","bDistributor":"NikeKish","sCity":"کیش","sAddress":"پاساژپردیس۲ طبقه دوم پلاک۱۷۴","sHours":"","sAreaCode":"076","sTel1":"44456001","sTel2":"","sLat":"26.5380322","sLong":"54.0069082","sVerified":"YES","bCategoryId":"1"},{"_id":"55f7b37954e630110066c58f","bId":"41","sId":"41","sName":"نمايشگاه كيش","bName":"TISSOT","bCategory":"ساعت","bDistributor":"شرکت بازرگانی کیش بهین","sCity":"کیش","sAddress":"بازار پرديس 1 ـ پلاك 88","sHours":"","sAreaCode":"076","sTel1":"44456250","sTel2":"","sLat":"26.5364806","sLong":"54.0213586","sVerified":"YES","bCategoryId":"5"},{"_id":"571db3cb1fac931100bfeab0","bId":"332","sId":"4","sName":"VERO MODA","bName":"VERO MODA","bCategory":"پوشاک بانوان","bDistributor":"","sCity":"کیش","sAddress":"بازار پردیس۲ طبقه دوم غرفه ۱۹۹","sHours":"","sAreaCode":"076","sTel1":"44452039","sTel2":"","sLat":"26.536242","sLong":"54.020091","sDiscount":0,"sVerified":"NO","bCategoryId":"6"},{"_id":"56a86acc4e1aeb11005f8383","bId":"384","sId":"1","sName":"Timberland","bName":"Timberland","bCategory":"پوشاک","bDistributor":"","sCity":"کیش","sAddress":"بازار پردیس۲ طبقه اول غرفه ۸۲","sHours":"","sAreaCode":"076","sTel1":"44456403","sTel2":"","sLat":"26.536138","sLong":"54.020064","sVerified":"NO","bCategoryId":"3"},{"_id":"56a71fc523f4d81100037f7c","bId":"15","sId":"7","sName":"Diesel","bName":"Diesel","bCategory":"پوشاک","bDistributor":"","sCity":"کیش","sAddress":"بلوارساحل ، مرکز خرید زیتون واحد 8","sHours":"","sAreaCode":"076","sTel1":"44423808","sTel2":"","sLat":"26.544066","sLong":"54.018865","sVerified":"NO","bCategoryId":"3"},{"_id":"5696675ec063471100aaf9d5","bId":"291","sId":"69","sName":"فروشگاه ندای کیش","bName":"Marilou BIO","bCategory":"آرایش و زیبایی","bDistributor":"شرکت ماهتاب کیش","sCity":"کیش","sAddress":"بازار پردیس2- غرفه 116","sHours":"","sAreaCode":"076","sTel1":"44456370","sTel2":"","sLat":"26.5364974","sLong":"54.0206013","sVerified":"YES","bCategoryId":"2"},{"_id":"566860e88022ef11004375f4","bId":"277","sId":"69","sName":"فروشگاه ندای کیش","bName":"KLORANE","bCategory":"آرایش و زیبایی","bDistributor":"شرکت ماهتاب کیش","sCity":"کیش","sAddress":"بازار پردیس2- غرفه 116","sHours":"","sAreaCode":"076","sTel1":"44456370","sTel2":"","sLat":"26.5364974","sLong":"54.0206013","sVerified":"YES","bCategoryId":"2"},{"_id":"56112052aea9d7110097df4a","bId":"97","sId":"10","sName":"فروشگاه روژا","bName":"noreva","bCategory":"آرایش و زیبایی","bDistributor":"شرکت پوبر","sCity":"کیش","sAddress":"بازار پردیس 2،طبقه فوقانی،غرفه147","sHours":"","sAreaCode":"076","sTel1":"44456706","sTel2":"","sLat":"26.5360983","sLong":"54.0203204","sVerified":"YES","bCategoryId":"2"},{"_id":"5668611f8022ef11004375f5","bId":"277","sId":"70","sName":"داروخانه پردیس","bName":"KLORANE","bCategory":"آرایش و زیبایی","bDistributor":"شرکت ماهتاب کیش","sCity":"کیش","sAddress":"بازارچه حافظ- پلاک S27","sHours":"","sAreaCode":"076","sTel1":"44422419","sTel2":"","sLat":"26.5398548","sLong":"54.021617","sVerified":"YES","bCategoryId":"2"},{"_id":"55f7c07054e630110066c5b8","bId":"42","sId":"29","sName":"نمايشگاه كيش","bName":"RADO","bCategory":"ساعت","bDistributor":"شرکت بازرگانی کیش بهین","sCity":"کیش","sAddress":"بازار پرديس 1 ـ پلاك 88","sHours":"","sAreaCode":"076","sTel1":"44456250","sTel2":"","sLat":"26.5364806","sLong":"54.0213586","sVerified":"YES","bCategoryId":"5"},{"_id":"56113826aea9d7110097df60","bId":"99","sId":"10","sName":"فروشگاه روژا","bName":"ego","bCategory":"آرایش و زیبایی","bDistributor":"شرکت پوبر","sCity":"کیش","sAddress":"بازار پردیس 2،طبقه فوقانی،غرفه147","sHours":"","sAreaCode":"076","sTel1":"44456706","sTel2":"","sLat":"26.5360983","sLong":"54.0203204","sVerified":"YES","bCategoryId":"2"},{"_id":"5691031a18eda411006af878","bId":"287","sId":"70","sName":"داروخانه پردیس","bName":"Rene Furterer","bCategory":"آرایش و زیبایی","bDistributor":"شرکت ماهتاب کیش","sCity":"کیش","sAddress":"بازارچه حافظ- پلاک S27","sHours":"","sAreaCode":"076","sTel1":"44422419","sTel2":"","sLat":"26.5398548","sLong":"54.021617","sVerified":"YES","bCategoryId":"2"},{"_id":"56682b6c8022ef11004375a5","bId":"276","sId":"69","sName":"فروشگاه ندای کیش","bName":"Avene","bCategory":"آرایش و زیبایی","bDistributor":"شرکت ماهتاب کیش","sCity":"کیش","sAddress":"بازار پردیس2- غرفه 116","sHours":"","sAreaCode":"076","sTel1":"44456370","sTel2":"","sLat":"26.5364974","sLong":"54.0206013","sVerified":"YES","bCategoryId":"2"},{"_id":"56768bd81082b811002ad50c","bId":"285","sId":"65","sName":"فروشگاه سندوس","bName":"DUCRAY","bCategory":"آرایش و زیبایی","bDistributor":"شرکت ماهتاب کیش","sCity":"کیش","sAddress":"مرکز تجاری کیش- طبقه همکف","sHours":"","sAreaCode":"076","sTel1":"44452502","sTel2":"","sLat":"26.5422084","sLong":"54.0191332","sVerified":"YES","bCategoryId":"2"},{"_id":"56a0c66e6fa2e911008b6d50","bId":"47","sId":"20","sName":"SKECHERS","bName":"SKECHERS","bCategory":"کفش","bDistributor":"iranskechers","sCity":"کیش","sAddress":" بازار مرکــز تجــاری، طبقه بالای همکف، شماره 70","sHours":"","sAreaCode":"076","sTel1":"44452790","sTel2":"","sLat":"26.541791","sLong":"54.019119","sVerified":"YES","bCategoryId":"4"},{"_id":"55f529bc421fa41100f3e124","bId":"32","sId":"52","sName":"نمایشگاه فرودگاه کیش","bName":"swatch","bCategory":"ساعت","bDistributor":"شرکت بازرگانی کیش بهین","sCity":"کیش","sAddress":"فرودگاه بین المللی کیش ـ ترمینال 5 خروجی","sHours":"","sAreaCode":"076","sTel1":"44441792","sTel2":"","sLat":"26.5340228","sLong":"53.974621","sVerified":"YES","bCategoryId":"5"},{"_id":"56113d89aea9d7110097df6b","bId":"100","sId":"10","sName":"فروشگاه روژا","bName":"Bailleul","bCategory":"آرایش و زیبایی","bDistributor":"شرکت پوبر","sCity":"کیش","sAddress":"بازار پردیس 2،طبقه فوقانی،غرفه147","sHours":"","sAreaCode":"076","sTel1":"44456706","sTel2":"","sLat":"26.5360983","sLong":"54.0203204","sVerified":"YES","bCategoryId":"2"},{"_id":"569361b1d4d3571100d11996","bId":"288","sId":"67","sName":"فروشگاه سندوس","bName":"miss eden","bCategory":"آرایش و زیبایی","bDistributor":"شرکت ماهتاب کیش","sCity":"کیش","sAddress":"مرکز تجاری کیش- طبقه همکف","sHours":"","sAreaCode":"076","sTel1":"44452502","sTel2":"","sLat":"26.5422084","sLong":"54.0191332","sVerified":"YES","bCategoryId":"2"},{"_id":"5693c71ed4d3571100d119e4","bId":"289","sId":"67","sName":"فروشگاه سندوس","bName":"comfort zone","bCategory":"آرایش و زیبایی","bDistributor":"شرکت ماهتاب کیش","sCity":"کیش","sAddress":"مرکز تجاری کیش- طبقه همکف","sHours":"","sAreaCode":"076","sTel1":"44452502","sTel2":"","sLat":"26.5422084","sLong":"54.0191332","sVerified":"YES","bCategoryId":"2"},{"_id":"5668604c8022ef11004375f2","bId":"276","sId":"68","sName":"فروشگاه ندای کیش","bName":"Avene","bCategory":"آرایش و زیبایی","bDistributor":"شرکت ماهتاب کیش","sCity":"کیش","sAddress":"بازار پردیس1- غرفه 92","sHours":"","sAreaCode":"076","sTel1":"44456818","sTel2":"","sLat":"26.5364974","sLong":"54.0206013","sVerified":"YES","bCategoryId":"2"},{"_id":"567691501082b811002ad50e","bId":"285","sId":"67","sName":"فروشگاه ندای کیش","bName":"DUCRAY","bCategory":"آرایش و زیبایی","bDistributor":"شرکت ماهتاب کیش","sCity":"کیش","sAddress":"بازار پردیس2- غرفه 116","sHours":"","sAreaCode":"076","sTel1":"44456370","sTel2":"","sLat":"26.5364974","sLong":"54.0206013","sVerified":"YES","bCategoryId":"2"},{"_id":"5610dfd9aea9d7110097df28","bId":"94","sId":"10","sName":"فروشگاه روژا","bName":"LIERAC","bCategory":"آرایش و زیبایی","bDistributor":"شرکت پوبر","sCity":"کیش","sAddress":"بازار پردیس 2،طبقه فوقانی،غرفه147","sHours":"","sAreaCode":"076","sTel1":"44456706","sTel2":"","sLat":"26.5360983","sLong":"54.0203204","sVerified":"YES","bCategoryId":"2"},{"_id":"569102e918eda411006af877","bId":"287","sId":"69","sName":"فروشگاه ندای کیش","bName":"Rene Furterer","bCategory":"آرایش و زیبایی","bDistributor":"شرکت ماهتاب کیش","sCity":"کیش","sAddress":"بازار پردیس2- غرفه 116","sHours":"","sAreaCode":"076","sTel1":"44456370","sTel2":"","sLat":"26.5364974","sLong":"54.0206013","sVerified":"YES","bCategoryId":"2"},{"_id":"55f673aca4a13b1100611463","bId":"37","sId":"38","sName":"نمایشگاه فرودگاه کیش","bName":"ck","bCategory":"ساعت","bDistributor":"شرکت بازرگانی کیش بهین","sCity":"کیش","sAddress":"فرودگاه بین المللی کیش ـ ترمینال 5 خروجی","sHours":"","sAreaCode":"076","sTel1":"44441792","sTel2":"","sLat":"26.5340228","sLong":"53.974621","sVerified":"YES","bCategoryId":"5"},{"_id":"567e7168e810af1100ff1240","bId":"286","sId":"70","sName":"داروخانه پردیس","bName":"GALENIC","bCategory":"آرایش و زیبایی","bDistributor":"شرکت ماهتاب کیش","sCity":"کیش","sAddress":"بازارچه حافظ- پلاک S27","sHours":"","sAreaCode":"076","sTel1":"44422419","sTel2":"","sLat":"26.5398548","sLong":"54.021617","sVerified":"YES","bCategoryId":"2"},{"_id":"566860b68022ef11004375f3","bId":"277","sId":"67","sName":"فروشگاه سندوس","bName":"KLORANE","bCategory":"آرایش و زیبایی","bDistributor":"شرکت ماهتاب کیش","sCity":"کیش","sAddress":"مرکز تجاری کیش- طبقه همکف","sHours":"","sAreaCode":"076","sTel1":"44452502","sTel2":"","sLat":"26.5422084","sLong":"54.0191332","sVerified":"YES","bCategoryId":"2"},{"_id":"56685f9e8022ef11004375f1","bId":"277","sId":"68","sName":"فروشگاه ندای کیش","bName":"KLORANE","bCategory":"آرایش و زیبایی","bDistributor":"شرکت ماهتاب کیش","sCity":"کیش","sAddress":"بازار پردیس1- غرفه 92","sHours":"","sAreaCode":"076","sTel1":"44456818","sTel2":"","sLat":"26.5364974","sLong":"54.0206013","sVerified":"YES","bCategoryId":"2"},{"_id":"56682ae88022ef11004375a3","bId":"276","sId":"67","sName":"فروشگاه سندوس","bName":"Avene","bCategory":"آرایش و زیبایی","bDistributor":"شرکت ماهتاب کیش","sCity":"کیش","sAddress":"مرکز تجاری کیش- طبقه همکف","sHours":"","sAreaCode":"076","sTel1":"44452502","sTel2":"","sLat":"26.5422084","sLong":"54.0191332","sVerified":"YES","bCategoryId":"2"},{"_id":"56951b5d170dd31100be5539","bId":"290","sId":"69","sName":"فروشگاه ندای کیش","bName":"PAYOT","bCategory":"آرایش و زیبایی","bDistributor":"شرکت ماهتاب کیش","sCity":"کیش","sAddress":"بازار پردیس2- غرفه 116","sHours":"","sAreaCode":"076","sTel1":"44456370","sTel2":"","sLat":"26.5364974","sLong":"54.0206013","sVerified":"YES","bCategoryId":"2"},{"_id":"56951b88170dd31100be553a","bId":"290","sId":"70","sName":"داروخانه پردیس","bName":"PAYOT","bCategory":"آرایش و زیبایی","bDistributor":"شرکت ماهتاب کیش","sCity":"کیش","sAddress":"بازارچه حافظ- پلاک S27","sHours":"","sAreaCode":"076","sTel1":"44422419","sTel2":"","sLat":"26.5398548","sLong":"54.021617","sVerified":"YES","bCategoryId":"2"},{"_id":"56682ba98022ef11004375a6","bId":"276","sId":"70","sName":"داروخانه پردیس","bName":"Avene","bCategory":"آرایش و زیبایی","bDistributor":"شرکت ماهتاب کیش","sCity":"کیش","sAddress":"بازارچه حافظ- پلاک S27","sHours":"","sAreaCode":"076","sTel1":"44422419","sTel2":"","sLat":"26.5398548","sLong":"54.021617","sVerified":"YES","bCategoryId":"2"},{"_id":"567e6e51e810af1100ff123e","bId":"286","sId":"68","sName":"فروشگاه ندای کیش","bName":"GALENIC","bCategory":"آرایش و زیبایی","bDistributor":"شرکت ماهتاب کیش","sCity":"کیش","sAddress":"بازار پردیس1- غرفه 92","sHours":"","sAreaCode":"076","sTel1":"44456818","sTel2":"","sLat":"26.5364974","sLong":"54.0206013","sVerified":"YES","bCategoryId":"2"},{"_id":"55f40752032ead1100a3cbb1","bId":"21","sId":"6","sName":"PUMA","bName":"PUMA","bCategory":"پوشاک ورزشی","bDistributor":"","sCity":"کیش","sAddress":"مركز تجاري کیش طبقه 2 شماره 2 ","sHours":"90:30~13:30,17~21:30","sAreaCode":"076","sTel1":"44452604","sTel2":"","sLat":"26.5414194","sLong":"54.0191483","sVerified":"NO","bCategoryId":"1"},{"_id":"56a876ef4e1aeb11005f838a","bId":"25","sId":"5","sName":"LACOSTE","bName":"LACOSTE","bCategory":"پوشاک","bDistributor":"","sCity":"کیش","sAddress":"بازار مروارید لاین پارس غرفه ۷۳","sHours":"","sAreaCode":"076","sTel1":"44458294","sTel2":"","sLat":"26.542885","sLong":"54.010359","sVerified":"NO","bCategoryId":"3"},{"_id":"55f67378a4a13b1100611462","bId":"37","sId":"37","sName":"نمايشگاه كيش","bName":"ck","bCategory":"ساعت","bDistributor":"شرکت بازرگانی کیش بهین","sCity":"کیش","sAddress":"بازار پرديس 1 ـ پلاك 88","sHours":"","sAreaCode":"076","sTel1":"44456250","sTel2":"","sLat":"26.5364806","sLong":"54.0213586","sVerified":"YES","bCategoryId":"5"},{"_id":"5693c897d4d3571100d119e7","bId":"289","sId":"70","sName":"داروخانه پردیس","bName":"comfort zone","bCategory":"آرایش و زیبایی","bDistributor":"شرکت ماهتاب کیش","sCity":"کیش","sAddress":"بازارچه حافظ- پلاک S27","sHours":"","sAreaCode":"076","sTel1":"44422419","sTel2":"","sLat":"26.5398548","sLong":"54.021617","sVerified":"YES","bCategoryId":"2"},{"_id":"55f7b3a954e630110066c590","bId":"41","sId":"42","sName":"نمایشگاه فرودگاه کیش","bName":"TISSOT","bCategory":"ساعت","bDistributor":"شرکت بازرگانی کیش بهین","sCity":"کیش","sAddress":"فرودگاه بین المللی کیش ـ ترمینال 5 خروجی","sHours":"","sAreaCode":"076","sTel1":"44441792","sTel2":"","sLat":"26.5340228","sLong":"26.5340228","sVerified":"YES","bCategoryId":"5"},{"_id":"56936209d4d3571100d11998","bId":"288","sId":"69","sName":"فروشگاه ندای کیش","bName":"miss eden","bCategory":"آرایش و زیبایی","bDistributor":"شرکت ماهتاب کیش","sCity":"کیش","sAddress":"بازار پردیس2- غرفه 116","sHours":"","sAreaCode":"076","sTel1":"44456370","sTel2":"","sLat":"26.5364974","sLong":"54.0206013","sVerified":"YES","bCategoryId":"2"},{"_id":"56951b0c170dd31100be5538","bId":"290","sId":"68","sName":"فروشگاه ندای کیش","bName":"PAYOT","bCategory":"آرایش و زیبایی","bDistributor":"شرکت ماهتاب کیش","sCity":"کیش","sAddress":"بازار پردیس1- غرفه 92","sHours":"","sAreaCode":"076","sTel1":"44456818","sTel2":"","sLat":"26.5364974","sLong":"54.0206013","sVerified":"YES","bCategoryId":"2"},{"_id":"5691027118eda411006af875","bId":"287","sId":"67","sName":"فروشگاه سندوس","bName":"Rene Furterer","bCategory":"آرایش و زیبایی","bDistributor":"شرکت ماهتاب کیش","sCity":"کیش","sAddress":"مرکز تجاری کیش- طبقه همکف","sHours":"","sAreaCode":"076","sTel1":"44452502","sTel2":"","sLat":"26.5422084","sLong":"54.0191332","sVerified":"YES","bCategoryId":"2"},{"_id":"55f68958a4a13b110061148b","bId":"38","sId":"38","sName":"نمایشگاه فرودگاه کیش","bName":"CERTINA","bCategory":"ساعت","bDistributor":"شرکت بازرگانی کیش بهین","sCity":"کیش","sAddress":"فرودگاه بین المللی کیش ـ ترمینال 5 خروجی","sHours":"","sAreaCode":"076","sTel1":"44441792","sTel2":"","sLat":"26.5340228","sLong":"53.974621","sVerified":"YES","bCategoryId":"5"},{"_id":"55f7c12354e630110066c5b9","bId":"42","sId":"30","sName":"نمایشگاه فرودگاه کیش","bName":"RADO","bCategory":"ساعت","bDistributor":"شرکت بازرگانی کیش بهین","sCity":"کیش","sAddress":"فرودگاه بین المللی کیش ـ ترمینال 5 خروجی","sHours":"","sAreaCode":"076","sTel1":"44441792","sTel2":"","sLat":"26.5340228","sLong":"26.5340228","sVerified":"YES","bCategoryId":"5"},{"_id":"5741573a3724a3110003e003","bId":"10","sId":"15","sName":"TOMMY","bName":"TOMMY","bCategory":"پوشاک","bDistributor":"","sCity":"کیش","sAddress":"بازار مروارید لاین بیستون غرفه ۱۲۰","sHours":"","sAreaCode":"076","sTel1":"44458320","sTel2":"","sLat":"26.542925","sLong":"54.010252","sDiscount":0,"sVerified":"NO","bCategoryId":"3"},{"_id":"56a743134e1aeb11005f8371","bId":"298","sId":"6","sName":"Bershka","bName":"Bershka","bCategory":"پوشاک","bDistributor":"","sCity":"کیش","sAddress":"بازار پردیس۲ طبقه اول غرفه ۸۱","sHours":"","sAreaCode":"076","sTel1":"44456899","sTel2":"","sLat":"26.536182","sLong":"54.020107","sVerified":"NO","bCategoryId":"3"},{"_id":"56a87eb34e1aeb11005f838e","bId":"7","sId":"10","sName":"MANGO","bName":"MANGO","bCategory":"پوشاک بانوان","bDistributor":"","sCity":"کیش","sAddress":"بازار مرکز تجاری طبقه همکف غرفه ۳۸","sHours":"","sAreaCode":"076","sTel1":"44452169","sTel2":"","sLat":"26.54192","sLong":"54.01898","sVerified":"NO","bCategoryId":"6"},{"_id":"56a88f3b4e1aeb11005f839c","bId":"386","sId":"2","sName":"CH","bName":"CH","bCategory":"پوشاک","bDistributor":"","sCity":"کیش","sAddress":"بازار مروارید لاین تیسفون غرفه ۱۴۲","sHours":"","sAreaCode":"076","sTel1":"44458342","sTel2":"","sLat":"26.543002","sLong":"54.010283","sVerified":"NO","bCategoryId":"3"},{"_id":"574157323724a3110003e000","bId":"10","sId":"12","sName":"TOMMY","bName":"TOMMY","bCategory":"پوشاک","bDistributor":"","sCity":"کیش","sAddress":"بلوار رازی ، مرکز خرید پردیس 1 واحد 115 و 116","sHours":"","sAreaCode":"076","sTel1":"44456326","sTel2":"","sLat":"26.536509","sLong":"54.02117","sDiscount":0,"sVerified":"NO","bCategoryId":"3"},{"_id":"56ceda03c6fd6111004c1a3f","bId":"11","sId":"6","sName":"Polo","bName":"Polo","bCategory":"پوشاک","bDistributor":"","sCity":"کیش","sAddress":"بازار مرکز تجاری طبقه اول غرفه ۱۸۵","sHours":"","sAreaCode":"076","sTel1":"44452032","sTel2":"","sLat":"26.54177","sLong":"54.019248","sDiscount":0,"sVerified":"NO","bCategoryId":"3"},{"_id":"56a72d1923f4d81100037f83","bId":"53","sId":"12","sName":"Abercrombie & Fitch","bName":"Abercrombie & Fitch","bCategory":"پوشاک","bDistributor":"","sCity":"کیش","sAddress":"بازار مرکز تجاری طبقه اول غرفه ۸۹","sHours":"","sAreaCode":"076","sTel1":"44452239","sTel2":"","sLat":"26.541939","sLong":"54.018994","sVerified":"NO","bCategoryId":"3"},{"_id":"56a7803b4e1aeb11005f837e","bId":"12","sId":"10","sName":"GIORDANO","bName":"GIORDANO","bCategory":"پوشاک","bDistributor":"","sCity":"کیش","sAddress":"بازار پردیس۲ طبقه دوم غرفه ۱۷۶","sHours":"10~22","sAreaCode":"076","sTel1":"44456274","sTel2":"","sLat":"26.5360322","sLong":"54.0199016","sVerified":"NO","bCategoryId":"3"},{"_id":"56a876b14e1aeb11005f8389","bId":"25","sId":"4","sName":"LACOSTE","bName":"LACOSTE","bCategory":"پوشاک","bDistributor":"","sCity":"کیش","sAddress":"بازار مرکز تجاری طبقه همکف غرفه ۵۳","sHours":"","sAreaCode":"076","sTel1":"44452189","sTel2":"","sLat":"26.541762","sLong":"54.019142","sVerified":"NO","bCategoryId":"3"},{"_id":"56a72cf323f4d81100037f82","bId":"53","sId":"11","sName":"Abercrombie & Fitch","bName":"Abercrombie & Fitch","bCategory":"پوشاک","bDistributor":"","sCity":"کیش","sAddress":"بازار مرکز تجاری طبقه همکف غرفه ۳۹","sHours":"","sAreaCode":"076","sTel1":"44452529","sTel2":"","sLat":"26.541848","sLong":"54.019311","sVerified":"NO","bCategoryId":"3"},{"_id":"56a7326623f4d81100037f8a","bId":"229","sId":"1","sName":"MICHAEL KORS","bName":"MICHAEL KORS","bCategory":"پوشاک","bDistributor":"","sCity":"کیش","sAddress":"بازار مرکز تجاری طبقه اول غرفه ۱۷۸","sHours":"","sAreaCode":"076","sTel1":"49319707","sTel2":"","sLat":"26.54182","sLong":"54.019275","sVerified":"NO","bCategoryId":"3"},{"_id":"56a73fcc4e1aeb11005f8370","bId":"383","sId":"3","sName":"BURBERRY","bName":"BURBERRY","bCategory":"پوشاک","bDistributor":"","sCity":"کیش","sAddress":"بازار پردیس۲ طبقه اول غرفه ۸۰","sHours":"","sAreaCode":"076","sTel1":"44456797","sTel2":"","sLat":"26.536533","sLong":"54.020166","sVerified":"NO","bCategoryId":"3"},{"_id":"56a7297623f4d81100037f7d","bId":"77","sId":"9","sName":"H&M","bName":"H&M","bCategory":"پوشاک","bDistributor":"","sCity":"کیش","sAddress":"بازار مرکز تجاری طبقه اول غرفه ۹۶","sHours":"","sAreaCode":"076","sTel1":"44452251","sTel2":"","sLat":"26.541893","sLong":"54.019132","sVerified":"NO","bCategoryId":"3"},{"_id":"56cece4fc6fd6111004c19de","bId":"29","sId":"7","sName":"bossini","bName":"bossini","bCategory":"پوشاک","bDistributor":"","sCity":"کیش","sAddress":"بازار پردیس 2 طبقه همکف چشم اندار واحد A15","sHours":"10~22","sAreaCode":"076","sTel1":"44456750","sTel2":"","sLat":"26.5360507","sLong":"54.0198857","sDiscount":0,"sVerified":"NO","bCategoryId":"3"},{"_id":"56a891c84e1aeb11005f839d","bId":"317","sId":"2","sName":"mothercare","bName":"mothercare","bCategory":"لوازم و پوشاک کودک","bDistributor":"","sCity":"کیش","sAddress":"بازار پردیس۱ غرفه۳۸","sHours":"","sAreaCode":"076","sTel1":"44456720","sTel2":"","sLat":"26.536815","sLong":"54.020989","sVerified":"NO","bCategoryId":"12"},{"_id":"56a86eb64e1aeb11005f8384","bId":"15","sId":"8","sName":"Diesel","bName":"Diesel","bCategory":"پوشاک","bDistributor":"","sCity":"کیش","sAddress":"بازار مرکز تجاری طبقه همکف غرفه ۱۲۹","sHours":"","sAreaCode":"076","sTel1":"44452005","sTel2":"","sLat":"26.541839","sLong":"54.019097","sVerified":"NO","bCategoryId":"3"},{"_id":"56a73f7d4e1aeb11005f836e","bId":"383","sId":"1","sName":"BURBERRY","bName":"BURBERRY","bCategory":"پوشاک","bDistributor":"","sCity":"کیش","sAddress":"بازار مرکز تجاری طبقه همکف غرفه ۱۷۴،۱۷۵","sHours":"","sAreaCode":"076","sTel1":"44452363","sTel2":"","sLat":"26.541873","sLong":"54.019047","sVerified":"NO","bCategoryId":"3"},{"_id":"56a71f2d23f4d81100037f7b","bId":"15","sId":"6","sName":"Diesel","bName":"Diesel","bCategory":"پوشاک","bDistributor":"","sCity":"کیش","sAddress":"بلوارساحل ، مرکز خرید زیتون واحد 20","sHours":"","sAreaCode":"076","sTel1":"44444250","sTel2":"","sLat":"26.544023","sLong":"54.018293","sVerified":"NO","bCategoryId":"3"},{"_id":"56a87efb4e1aeb11005f8390","bId":"7","sId":"12","sName":"MANGO","bName":"MANGO","bCategory":"پوشاک بانوان","bDistributor":"","sCity":"کیش","sAddress":"\"\tبازار مرکز تجاری طبقه همکف غرفه ۱۱۷،۱۱۸\"","sHours":"","sAreaCode":"076","sTel1":"44452088","sTel2":"","sLat":"26.541785","sLong":"54.019343","sVerified":"NO","bCategoryId":"6"},{"_id":"56a4a8c48351741100b019ab","bId":"15","sId":"4","sName":"Diesel","bName":"Diesel","bCategory":"پوشاک","bDistributor":"","sCity":"کیش","sAddress":"بلوار رازی ، مرکز خرید پردیس 1 واحد108","sHours":"","sAreaCode":"076","sTel1":"44456156","sTel2":"","sLat":"26.536509","sLong":"54.02117","sVerified":"NO","bCategoryId":"3"},{"_id":"56a86edd4e1aeb11005f8385","bId":"15","sId":"9","sName":"Diesel","bName":"Diesel","bCategory":"پوشاک","bDistributor":"","sCity":"کیش","sAddress":"بازار مرکز تجاری طبقه اول غرفه ۱۵۰","sHours":"","sAreaCode":"076","sTel1":"44452191","sTel2":"","sLat":"26.541837","sLong":"54.018923","sVerified":"NO","bCategoryId":"3"},{"_id":"574157373724a3110003e002","bId":"10","sId":"14","sName":"TOMMY","bName":"TOMMY","bCategory":"پوشاک","bDistributor":"","sCity":"کیش","sAddress":"بازار مرکز تجاری طبقه همکف غرفه ۱۷۲،۱۷۳","sHours":"","sAreaCode":"076","sTel1":"44452348","sTel2":"","sLat":"26.541931","sLong":"54.019062","sDiscount":0,"sVerified":"NO","bCategoryId":"3"},{"_id":"56a8848b4e1aeb11005f8394","bId":"28","sId":"6","sName":"VERSACE","bName":"VERSACE","bCategory":"پوشاک","bDistributor":"","sCity":"کیش","sAddress":"بازار مرکز تجاری طبقه همکف غرفه ۵۸","sHours":"","sAreaCode":"076","sTel1":"44452230","sTel2":"","sLat":"26.541685","sLong":"54.019084","sVerified":"NO","bCategoryId":"3"},{"_id":"56a64b9c23f4d81100037f74","bId":"371","sId":"1","sName":"CONS","bName":"CONS","bCategory":"پوشاک","bDistributor":"","sCity":"کیش","sAddress":"بلوار رازی ، مجتمع تجاری پردیس 2 واحد 161","sHours":"","sAreaCode":"076","sTel1":"44456200","sTel2":"","sLat":"26.536054","sLong":"54.020303","sVerified":"NO","bCategoryId":"3"},{"_id":"56a4ef088351741100b019af","bId":"31","sId":"20","sName":"ZARA","bName":"ZARA","bCategory":"پوشاک","bDistributor":"","sCity":"کیش ","sAddress":"بلوار رازی ، مجتمع تجاری پردیس 1 واحد 75","sHours":"","sAreaCode":"076","sTel1":"44456877","sTel2":"","sLat":"26.53654","sLong":"54.021036","sVerified":"NO","bCategoryId":"3"},{"_id":"56a871884e1aeb11005f8388","bId":"350","sId":"4","sName":"Zagrutti","bName":"Zagrutti","bCategory":"پوشاک آقایان","bDistributor":"","sCity":"کیش","sAddress":"بازار مرکز تجاری طبقه اول غرفه ۱۷ الی ۲۰","sHours":"","sAreaCode":"076","sTel1":"44422369","sTel2":"","sLat":"26.541863","sLong":"54.018976","sVerified":"NO","bCategoryId":"7"},{"_id":"56a730d123f4d81100037f87","bId":"26","sId":"6","sName":"ESPRIT","bName":"ESPRIT","bCategory":"پوشاک","bDistributor":"","sCity":"کیش","sAddress":"بازار مروارید لاین تیسفون غرفه ۱۵۱","sHours":"","sAreaCode":"076","sTel1":"44458351","sTel2":"","sLat":"26.54285","sLong":"54.010327","sVerified":"NO","bCategoryId":"3"},{"_id":"56a891ef4e1aeb11005f839e","bId":"317","sId":"3","sName":"mothercare","bName":"mothercare","bCategory":"لوازم و پوشاک کودک","bDistributor":"","sCity":"کیش","sAddress":"بازار مرکز تجاری طبقه اول غرفه ۴۱/۴۳","sHours":"","sAreaCode":"076","sTel1":"44452076","sTel2":"","sLat":"26.541892","sLong":"54.019119","sVerified":"NO","bCategoryId":"12"},{"_id":"56a72d4023f4d81100037f84","bId":"53","sId":"13","sName":"Abercrombie & Fitch","bName":"Abercrombie & Fitch","bCategory":"پوشاک","bDistributor":"","sCity":"کیش","sAddress":"بازار مروارید لاین بیستون غرفه ۱۱۹","sHours":"","sAreaCode":"076","sTel1":"44458319","sTel2":"","sLat":"26.542957","sLong":"54.010303","sVerified":"NO","bCategoryId":"3"},{"_id":"56a87f1e4e1aeb11005f8391","bId":"7","sId":"13","sName":"MANGO","bName":"MANGO","bCategory":"پوشاک بانوان","bDistributor":"","sCity":"کیش","sAddress":"بازار مروارید لاین پرسپولیس غرفه ۲۰۸","sHours":"","sAreaCode":"076","sTel1":"44458408","sTel2":"","sLat":"26.542967","sLong":"54.010309","sVerified":"NO","bCategoryId":"6"},{"_id":"56a64c3823f4d81100037f75","bId":"9","sId":"10","sName":"FILA","bName":"FILA","bCategory":"پوشاک ورزشی","bDistributor":"","sCity":"کیش","sAddress":"بلوار رازی ، مجتمع تجاری پردیس 2 واحد 168","sHours":"","sAreaCode":"076","sTel1":"44456239","sTel2":"","sLat":"26.536054","sLong":"54.020303","sVerified":"NO","bCategoryId":"1"},{"_id":"56a87bcf4e1aeb11005f838b","bId":"30","sId":"9","sName":"Massimo Dutti","bName":"Massimo Dutti","bCategory":"پوشاک","bDistributor":"","sCity":"کیش","sAddress":"بازار پردیس۲ طبقه دوم غرفه ۲۰۸","sHours":"","sAreaCode":"076","sTel1":"44456575","sTel2":"","sLat":"26.536332","sLong":"54.020097","sVerified":"NO","bCategoryId":"3"},{"_id":"56a87ed54e1aeb11005f838f","bId":"7","sId":"11","sName":"MANGO","bName":"MANGO","bCategory":"پوشاک بانوان","bDistributor":"","sCity":"کیش","sAddress":"بازار مرکز تجاری طبقه اول غرفه ۱۹۸","sHours":"","sAreaCode":"076","sTel1":"44452045","sTel2":"","sLat":"26.541813","sLong":"54.01905","sVerified":"NO","bCategoryId":"6"},{"_id":"56a780154e1aeb11005f837c","bId":"12","sId":"8","sName":"GIORDANO","bName":"GIORDANO","bCategory":"پوشاک","bDistributor":"","sCity":"کیش","sAddress":"بازار زیتون غرفه ۶۶","sHours":"10~22","sAreaCode":"076","sTel1":"44424171","sTel2":"","sLat":"26.5439759","sLong":"54.0184906","sVerified":"NO","bCategoryId":"3"},{"_id":"56ae2638eabff2110021159a","bId":"31","sId":"8","sName":"ZARA","bName":"ZARA","bCategory":"پوشاک","bDistributor":"","sCity":"کیش","sAddress":"پردیس 2 طبقه همکف واحد 10","sHours":"","sAreaCode":"076","sTel1":"44456919","sTel2":"","sLat":"26.5361292","sLong":"54.0200733","sVerified":"NO","bCategoryId":"3"},{"_id":"56a6519c23f4d81100037f79","bId":"115","sId":"4","sName":"mavi","bName":"mavi","bCategory":"پوشاک","bDistributor":"","sCity":"کیش","sAddress":"میدان وصال ، مرکز تجاری دامون واحد 87","sHours":"","sAreaCode":"076","sTel1":"44459824","sTel2":"","sLat":"26.562161","sLong":"53.98704","sVerified":"NO","bCategoryId":"3"},{"_id":"56a887d34e1aeb11005f8397","bId":"22","sId":"2","sName":"KOTON","bName":"KOTON","bCategory":"پوشاک","bDistributor":"","sCity":"کیش","sAddress":"بازار مریم غرفه ۱۹","sHours":"","sAreaCode":"076","sTel1":"44455519","sTel2":"","sLat":"26.552484","sLong":"54.019184","sVerified":"NO","bCategoryId":"3"},{"_id":"56a64ad923f4d81100037f73","bId":"27","sId":"12","sName":"Reebok","bName":"Reebok","bCategory":"پوشاک ورزشی","bDistributor":"","sCity":"کیش","sAddress":"بلوار رازی ، مجتمع تجاری پردیس 2 واحد 141","sHours":"","sAreaCode":"076","sTel1":"44456478","sTel2":"","sLat":"26.536054","sLong":"54.020303","sVerified":"NO","bCategoryId":"1"},{"_id":"574157343724a3110003e001","bId":"10","sId":"13","sName":"TOMMY","bName":"TOMMY","bCategory":"پوشاک","bDistributor":"","sCity":"کیش","sAddress":"بلوار رازی ، مرکز خرید پردیس 2 واحد 73","sHours":"","sAreaCode":"076","sTel1":"44456629","sTel2":"","sLat":"26.536016","sLong":"54.020121","sDiscount":0,"sVerified":"NO","bCategoryId":"3"},{"_id":"56a886e34e1aeb11005f8396","bId":"76","sId":"4","sName":"Pierre Cardin","bName":"Pierre Cardin","bCategory":"پوشاک","bDistributor":"","sCity":"کیش","sAddress":" بازار مروارید لاین تیسفون غرفه ۱۵۰","sHours":"","sAreaCode":"076","sTel1":"44458876","sTel2":"","sLat":"26.542831","sLong":"54.010304","sVerified":"NO","bCategoryId":"3"},{"_id":"56a87bf34e1aeb11005f838c","bId":"30","sId":"10","sName":"Massimo Dutti","bName":"Massimo Dutti","bCategory":"پوشاک","bDistributor":"","sCity":"کیش","sAddress":"بازار مرکز تجاری طبقه اول غرفه ۱۸۶","sHours":"","sAreaCode":"076","sTel1":"44452106","sTel2":"","sLat":"26.54187","sLong":"54.019071","sVerified":"NO","bCategoryId":"3"},{"_id":"56a72d6623f4d81100037f85","bId":"53","sId":"14","sName":"Abercrombie & Fitch","bName":"Abercrombie & Fitch","bCategory":"پوشاک","bDistributor":"","sCity":"کیش","sAddress":"بازار مروارید لاین پارس غرفه ۷۲","sHours":"","sAreaCode":"076","sTel1":"44458272","sTel2":"","sLat":"26.543163","sLong":"54.010128","sVerified":"NO","bCategoryId":"3"},{"_id":"56a4a7b98351741100b019aa","bId":"22","sId":"7","sName":"KOTON","bName":"KOTON","bCategory":"پوشاک","bDistributor":"","sCity":"کیش","sAddress":"خیابان فردوسی ، مرکز خرید پانیذ","sHours":"","sAreaCode":"076","sTel1":"44420072","sTel2":"","sLat":"26.539389","sLong":"54.019807","sVerified":"NO","bCategoryId":"3"},{"_id":"56a88c284e1aeb11005f8399","bId":"385","sId":"1","sName":"GUESS","bName":"GUESS","bCategory":"پوشاک","bDistributor":"","sCity":"کیش","sAddress":"بازار مروارید لاین پارس غرفه ۷۹","sHours":"","sAreaCode":"076","sTel1":"44458279","sTel2":"","sLat":"26.542905","sLong":"54.010266","sVerified":"NO","bCategoryId":"3"},{"_id":"56a88f124e1aeb11005f839b","bId":"386","sId":"1","sName":"CH","bName":"CH","bCategory":"پوشاک","bDistributor":"","sCity":"کیش","sAddress":"بازار مرکز تجاری طبقه همکف غرفه ۹۳","sHours":"","sAreaCode":"076","sTel1":"44452356","sTel2":"","sLat":"26.54182","sLong":"54.01924","sVerified":"NO","bCategoryId":"3"},{"_id":"56a86f0b4e1aeb11005f8386","bId":"15","sId":"10","sName":"Diesel","bName":"Diesel","bCategory":"پوشاک","bDistributor":"","sCity":"کیش","sAddress":"بازار پردیس۲ طبقه اول غرفه ۸۵","sHours":"","sAreaCode":"076","sTel1":"44456322","sTel2":"","sLat":"26.536219","sLong":"54.019997","sVerified":"NO","bCategoryId":"3"},{"_id":"56a6510223f4d81100037f78","bId":"336","sId":"4","sName":"Penti","bName":"Penti","bCategory":"پوشاک بانوان","bDistributor":"","sCity":"کیش","sAddress":"میدان وصال ، مرکز تجاری دامون واحد 83","sHours":"","sAreaCode":"076","sTel1":"44459823","sTel2":"","sLat":"26.562161","sLong":"53.98704","sVerified":"NO","bCategoryId":"6"},{"_id":"56a87f424e1aeb11005f8392","bId":"7","sId":"14","sName":"MANGO","bName":"MANGO","bCategory":"پوشاک بانوان","bDistributor":"","sCity":"کیش","sAddress":"بلوار رازی ، مرکز خرید پردیس 1 واحد 21","sHours":"","sAreaCode":"076","sTel1":"44456123","sTel2":"","sLat":"26.536543","sLong":"54.021068","sVerified":"NO","bCategoryId":"6"},{"_id":"56a4f0b78351741100b019b0","bId":"25","sId":"2","sName":"LACOSTE","bName":"LACOSTE","bCategory":"پوشاک","bDistributor":"","sCity":"کیش","sAddress":"بلوار رازی ، مجتمع تجاری پردیس 1 واحد 94","sHours":"","sAreaCode":"076","sTel1":"44456219","sTel2":"","sLat":"26.536447","sLong":"54.021171","sVerified":"NO","bCategoryId":"3"},{"_id":"56cecdf0c6fd6111004c19cd","bId":"29","sId":"6","sName":"bossini","bName":"bossini","bCategory":"پوشاک","bDistributor":"","sCity":"کیش","sAddress":"مرکز خرید تجاری طبقه اول شماره 196","sHours":"10~22","sAreaCode":"076","sTel1":"44452043","sTel2":"","sLat":"26.5416979","sLong":"54.0191652","sDiscount":0,"sVerified":"NO","bCategoryId":"3"},{"_id":"56a640f223f4d81100037f71","bId":"25","sId":"3","sName":"LACOSTE","bName":"LACOSTE","bCategory":"پوشاک","bDistributor":"","sCity":"کیش","sAddress":"بلوار رازی ، مجتمع تجاری پردیس 2 واحد 112","sHours":"","sAreaCode":"076","sTel1":"44456513","sTel2":"","sLat":"26.53617","sLong":"54.020125","sVerified":"NO","bCategoryId":"3"},{"_id":"56a730aa23f4d81100037f86","bId":"26","sId":"5","sName":"ESPRIT","bName":"ESPRIT","bCategory":"پوشاک","bDistributor":"","sCity":"کیش","sAddress":"بازار مرکز تجاری طبقه دوم غرفه ۸","sHours":"","sAreaCode":"076","sTel1":"44452048","sTel2":"","sLat":"26.541848","sLong":"54.019264","sVerified":"NO","bCategoryId":"3"},{"_id":"56ced9edc6fd6111004c1a3c","bId":"237","sId":"12","sName":"361","bName":"361","bCategory":"پوشاک ورزشی","bDistributor":"","sCity":"کیش","sAddress":"بازار سارینا 1","sHours":"","sAreaCode":"076","sTel1":"44468128","sTel2":"","sLat":"26.531929","sLong":"54.024203","sDiscount":0,"sVerified":"NO","bCategoryId":"1"},{"_id":"56a730fc23f4d81100037f88","bId":"26","sId":"7","sName":"ESPRIT","bName":"ESPRIT","bCategory":"پوشاک","bDistributor":"","sCity":"کیش","sAddress":"بازار پردیس۱ غرفه۱۱۹","sHours":"","sAreaCode":"076","sTel1":"44456701","sTel2":"","sLat":"26.536751","sLong":"54.021177","sVerified":"NO","bCategoryId":"3"},{"_id":"569666f1c063471100aaf9d3","bId":"291","sId":"67","sName":"فروشگاه سندوس","bName":"Marilou BIO","bCategory":"آرایش و زیبایی","bDistributor":"شرکت ماهتاب کیش","sCity":"کیش","sAddress":"مرکز تجاری کیش- طبقه همکف","sHours":"","sAreaCode":"076","sTel1":"44452502","sTel2":"","sLat":"26.5422084","sLong":"54.0191332","sVerified":"YES","bCategoryId":"2"},{"_id":"56ced9cbc6fd6111004c1a36","bId":"237","sId":"11","sName":"361","bName":"361","bCategory":"پوشاک ورزشی","bDistributor":"","sCity":"کیش","sAddress":"مرکز تجاری کیش","sHours":"","sAreaCode":"076","sTel1":"44468128","sTel2":"","sLat":"26.541838","sLong":"54.019251","sDiscount":0,"sVerified":"NO","bCategoryId":"1"},{"_id":"56a5e92723f4d81100037f5c","bId":"31","sId":"9","sName":"ZARA","bName":"ZARA","bCategory":"پوشاک","bDistributor":"","sCity":"بندرعباس","sAddress":"بازار زیتون غرفه 104","sHours":"","sAreaCode":"076","sTel1":"33227317","sTel2":"","sLat":"27.1790985","sLong":"56.2756198","sDiscount":0,"sVerified":"NO","bCategoryId":"3"},{"_id":"56a870ba4e1aeb11005f8387","bId":"31","sId":"21","sName":"ZARA","bName":"ZARA","bCategory":"پوشاک","bDistributor":"","sCity":"کیش ","sAddress":"بازار مرکز تجاری طبقه اول غرفه ۱۸۷","sHours":"","sAreaCode":"076","sTel1":"44452439","sTel2":"","sLat":"26.541676","sLong":"54.019293","sVerified":"NO","bCategoryId":"3"},{"_id":"56a73fa64e1aeb11005f836f","bId":"383","sId":"2","sName":"BURBERRY","bName":"BURBERRY","bCategory":"پوشاک","bDistributor":"","sCity":"کیش","sAddress":"بازار مرکز تجاری طبقه همکف غرفه ۵۲","sHours":"","sAreaCode":"076","sTel1":"44452303","sTel2":"","sLat":"26.541885","sLong":"54.019259","sVerified":"NO","bCategoryId":"3"},{"_id":"56a87c1a4e1aeb11005f838d","bId":"30","sId":"11","sName":"Massimo Dutti","bName":"Massimo Dutti","bCategory":"پوشاک","bDistributor":"","sCity":"کیش","sAddress":"بازار مرکز تجاری طبقه دوم غرفه ۶","sHours":"","sAreaCode":"076","sTel1":"44452086","sTel2":"","sLat":"26.541917","sLong":"54.01924","sVerified":"NO","bCategoryId":"3"},{"_id":"56a780284e1aeb11005f837d","bId":"12","sId":"9","sName":"GIORDANO","bName":"GIORDANO","bCategory":"پوشاک","bDistributor":"","sCity":"کیش","sAddress":"بازار پردیس۱ غرفه ۱۵","sHours":"10~22","sAreaCode":"076","sTel1":"44456721","sTel2":"","sLat":"26.5364952","sLong":"54.0213375","sVerified":"NO","bCategoryId":"3"},{"_id":"56966786c063471100aaf9d6","bId":"291","sId":"70","sName":"داروخانه پردیس","bName":"Marilou BIO","bCategory":"آرایش و زیبایی","bDistributor":"شرکت ماهتاب کیش","sCity":"کیش","sAddress":"بازارچه حافظ- پلاک S27","sHours":"","sAreaCode":"076","sTel1":"44422419","sTel2":"","sLat":"26.5398548","sLong":"54.021617","sVerified":"YES","bCategoryId":"2"},{"_id":"56a5e93723f4d81100037f5f","bId":"31","sId":"7","sName":"ZARA","bName":"ZARA","bCategory":"پوشاک","bDistributor":"","sCity":"کیش","sAddress":"مرکز تجاری طبقه همکف واحد 162 و 192 ","sHours":"","sAreaCode":"076","sTel1":"44452021","sTel2":"","sLat":"26.5417795","sLong":"54.0193797","sDiscount":0,"sVerified":"NO","bCategoryId":"3"},{"_id":"561124bdaea9d7110097df55","bId":"98","sId":"10","sName":"فروشگاه روژا","bName":"IMEDEEN","bCategory":"آرایش و زیبایی","bDistributor":"شرکت پوبر","sCity":"کیش","sAddress":"بازار پردیس 2،طبقه فوقانی،غرفه147","sHours":"","sAreaCode":"076","sTel1":"44456706","sTel2":"","sLat":"26.5360983","sLong":"54.0203204","sVerified":"YES","bCategoryId":"2"},{"_id":"56a649e823f4d81100037f72","bId":"15","sId":"5","sName":"Diesel","bName":"Diesel","bCategory":"پوشاک","bDistributor":"","sCity":"کیش","sAddress":"بلوار رازی ، مرکز خرید پردیس 2 واحد 100","sHours":"","sAreaCode":"076","sTel1":"44456809","sTel2":"","sLat":"26.536059","sLong":"54.020008","sVerified":"NO","bCategoryId":"3"},{"_id":"56a72aa723f4d81100037f7e","bId":"53","sId":"10","sName":"Abercrombie & Fitch","bName":"Abercrombie & Fitch","bCategory":"پوشاک","bDistributor":"","sCity":"کیش","sAddress":"بازار مرکز تجاری طبقه همکف غرفه ۸۵","sHours":"","sAreaCode":"076","sTel1":"44452024","sTel2":"","sLat":"26.541872","sLong":"54.018952","sVerified":"NO","bCategoryId":"3"},{"_id":"5610d417aea9d7110097df1c","bId":"93","sId":"10","sName":"فروشگاه روژا","bName":"ESTHEDERM","bCategory":"آرایش و زیبایی","bDistributor":"شرکت پوبر","sCity":"کیش","sAddress":"بازار پردیس 2،طبقه فوقانی،غرفه147","sHours":"","sAreaCode":"076","sTel1":"44456706","sTel2":"","sLat":"26.5360983","sLong":"54.0203204","sVerified":"YES","bCategoryId":"2"},{"_id":"5696671cc063471100aaf9d4","bId":"291","sId":"68","sName":"فروشگاه ندای کیش","bName":"Marilou BIO","bCategory":"آرایش و زیبایی","bDistributor":"شرکت ماهتاب کیش","sCity":"کیش","sAddress":"بازار پردیس1- غرفه 92","sHours":"","sAreaCode":"076","sTel1":"44456818","sTel2":"","sLat":"26.5364974","sLong":"54.0206013","sVerified":"YES","bCategoryId":"2"},{"_id":"56111c38aea9d7110097df3f","bId":"96","sId":"10","sName":"فروشگاه روژا","bName":"URIAGE","bCategory":"آرایش و زیبایی","bDistributor":"شرکت پوبر","sCity":"کیش","sAddress":"بازار پردیس 2،طبقه فوقانی،غرفه147","sHours":"","sAreaCode":"076","sTel1":"44456706","sTel2":"","sLat":"26.5360983","sLong":"54.0203204","sVerified":"YES","bCategoryId":"2"},{"_id":"5610eb10aea9d7110097df33","bId":"95","sId":"10","sName":"فروشگاه روژا","bName":"BIODERMA","bCategory":"آرایش و زیبایی","bDistributor":"شرکت پوبر","sCity":"کیش","sAddress":"بازار پردیس 2،طبقه فوقانی،غرفه147","sHours":"","sAreaCode":"076","sTel1":"44456706","sTel2":"","sLat":"26.5360983","sLong":"54.0203204","sVerified":"YES","bCategoryId":"2"},{"_id":"561224df9f34111100fd6a61","bId":"101","sId":"10","sName":"فروشگاه روژا","bName":"Bio-Oil","bCategory":"آرایش و زیبایی","bDistributor":"شرکت پوبر","sCity":"کیش","sAddress":"بازار پردیس 2،طبقه فوقانی،غرفه147","sHours":"","sAreaCode":"076","sTel1":"44456706","sTel2":"","sLat":"26.5360983","sLong":"54.0203204","sVerified":"YES","bCategoryId":"2"},{"_id":"55feaef2333e921100bf3991","bId":"91","sId":"10","sName":"فروشگاه روژا","bName":"NUXE","bCategory":"آرایش و زیبایی","bDistributor":"شرکت پوبر","sCity":"کیش","sAddress":"بازار پردیس 2،طبقه فوقانی،غرفه147","sHours":"","sAreaCode":"076","sTel1":"44456706","sTel2":"","sLat":"26.5360983","sLong":"54.0203204","sVerified":"YES","bCategoryId":"2"},{"_id":"55f6892ca4a13b110061148a","bId":"38","sId":"37","sName":"نمايشگاه كيش","bName":"CERTINA","bCategory":"ساعت","bDistributor":"شرکت بازرگانی کیش بهین","sCity":"کیش","sAddress":"بازار پرديس 1 ـ پلاك 88","sHours":"","sAreaCode":"076","sTel1":"44456250","sTel2":"","sLat":"26.5364806","sLong":"54.0213586","sVerified":"YES","bCategoryId":"5"},{"_id":"5610cfa6aea9d7110097df11","bId":"92","sId":"10","sName":"فروشگاه روژا","bName":"CAUDALIE","bCategory":"آرایش و زیبایی","bDistributor":"شرکت پوبر","sCity":"کیش","sAddress":"بازار پردیس 2،طبقه فوقانی،غرفه147","sHours":"","sAreaCode":"076","sTel1":"44456706","sTel2":"","sLat":"26.5360983","sLong":"54.0203204","sVerified":"YES","bCategoryId":"2"},{"_id":"55f52964421fa41100f3e123","bId":"32","sId":"51","sName":"نمايشگاه كيش","bName":"swatch","bCategory":"ساعت","bDistributor":"شرکت بازرگانی کیش بهین","sCity":"کیش","sAddress":"بازار پرديس 1 ـ پلاك 88","sHours":"","sAreaCode":"076","sTel1":"44456250","sTel2":"","sLat":"26.5364806","sLong":"54.0213586","sVerified":"YES","bCategoryId":"5"}]